[
  {
    "id": "6639cc05-4d8f-4b1e-896b-4f6d6329ecb4",
    "GID_2": "PHL.22.17_1",
    "municipality": "Tapaz, Capiz",
    "suggested_area": true,
    "score": 1517600,
    "longitude": 122.36944146192867,
    "latitude": 11.346666112767293,
    "facility_name": "Suggested Area",
    "population": 38319.065742492676,
    "count": 3794
  },
  {
    "id": "2c609014-d595-44b7-b074-5cc65a3793a6",
    "GID_2": "PHL.76.14_1",
    "municipality": "San Jose, Tarlac",
    "suggested_area": true,
    "score": 1263600,
    "longitude": 120.50221988446627,
    "latitude": 15.543890060821656,
    "facility_name": "Suggested Area",
    "population": 23991.905210852623,
    "count": 3159
  },
  {
    "id": "cae0415c-7f5d-4958-8778-8d67e450627e",
    "GID_2": "PHL.58.4_1",
    "municipality": "Bulalacao, Oriental Mindoro",
    "suggested_area": true,
    "score": 1020400,
    "longitude": 121.24249740662256,
    "latitude": 12.454999901829801,
    "facility_name": "Suggested Area",
    "population": 31602.060343027115,
    "count": 2551
  },
  {
    "id": "86af92d8-bf85-4250-aaef-b80fb03c4b8a",
    "GID_2": "PHL.22.6_1",
    "municipality": "Jamindan, Capiz",
    "suggested_area": true,
    "score": 978400,
    "longitude": 122.47999697930855,
    "latitude": 11.434721704531102,
    "facility_name": "Suggested Area",
    "population": 17747.20581960678,
    "count": 2446
  },
  {
    "id": "8d339b87-3a20-4aad-a23d-f249beb70a80",
    "GID_2": "PHL.58.1_1",
    "municipality": "Baco, Oriental Mindoro",
    "suggested_area": true,
    "score": 712000,
    "longitude": 121.09555301291915,
    "latitude": 13.41611140813501,
    "facility_name": "Suggested Area",
    "population": 14000.98050737381,
    "count": 1780
  },
  {
    "id": "10711206-ac4f-4b42-91ad-ca029ae4db26",
    "GID_2": "PHL.73.12_1",
    "municipality": "Parang, Sulu",
    "suggested_area": true,
    "score": 528400,
    "longitude": 120.89916419184485,
    "latitude": 6.005275027583385,
    "facility_name": "Suggested Area",
    "population": 47290.481702804565,
    "count": 1321
  },
  {
    "id": "40f461b4-b55a-4e76-bc57-4698c411a028",
    "GID_2": "PHL.72.1_1",
    "municipality": "Bagumbayan, Sultan Kudarat",
    "suggested_area": true,
    "score": 462000,
    "longitude": 124.57832958807974,
    "latitude": 6.598886382778036,
    "facility_name": "Suggested Area",
    "population": 19431.269234657288,
    "count": 1155
  },
  {
    "id": "672c961e-071c-4e39-b2e7-609737166ee1",
    "GID_2": "PHL.57.5_1",
    "municipality": "Magsaysay, Occidental Mindoro",
    "suggested_area": true,
    "score": 410800,
    "longitude": 121.2144418607548,
    "latitude": 12.45777768074975,
    "facility_name": "Suggested Area",
    "population": 11083.812067866325,
    "count": 1027
  },
  {
    "id": "1b114fa1-ad4c-4cac-9844-1a804695920b",
    "GID_2": "PHL.26.11_1",
    "municipality": "Pantukan, Compostela Valley",
    "suggested_area": true,
    "score": 409600,
    "longitude": 125.86221803363827,
    "latitude": 7.251386651075798,
    "facility_name": "Suggested Area",
    "population": 23010.18447303772,
    "count": 1024
  },
  {
    "id": "06f22a8b-d992-4a89-a421-09d7761fa227",
    "GID_2": "PHL.55.12_1",
    "municipality": "Jaen, Nueva Ecija",
    "suggested_area": true,
    "score": 357200,
    "longitude": 120.8380531018338,
    "latitude": 15.429167791427762,
    "facility_name": "Suggested Area",
    "population": 25739.039360523224,
    "count": 893
  },
  {
    "id": "c9fbf787-81b3-4993-91ec-0b42074994db",
    "GID_2": "PHL.73.6_1",
    "municipality": "Luuk, Sulu",
    "suggested_area": true,
    "score": 327200,
    "longitude": 121.39416402091757,
    "latitude": 6.046108377706767,
    "facility_name": "Suggested Area",
    "population": 10343.474378824234,
    "count": 818
  },
  {
    "id": "886a61a9-6cd7-4b7e-bb6b-9b3337a7c218",
    "GID_2": "PHL.72.5_1",
    "municipality": "Isulan, Sultan Kudarat",
    "suggested_area": true,
    "score": 278000,
    "longitude": 124.64194067722545,
    "latitude": 6.603053051157973,
    "facility_name": "Suggested Area",
    "population": 9199.114567756653,
    "count": 695
  },
  {
    "id": "0978bbc8-afee-4676-aea5-86313e5afcc0",
    "GID_2": "PHL.61.5_1",
    "municipality": "Anda, Pangasinan",
    "suggested_area": true,
    "score": 242400,
    "longitude": 119.96110896020286,
    "latitude": 16.365557065345424,
    "facility_name": "Suggested Area",
    "population": 5931.9771065711975,
    "count": 606
  },
  {
    "id": "ea053b0e-73f1-4b6d-88d0-dcd2cbc17c10",
    "GID_2": "PHL.13.8_1",
    "municipality": "Kapangan, Benguet",
    "suggested_area": true,
    "score": 239600,
    "longitude": 120.59555318557089,
    "latitude": 16.60166827354109,
    "facility_name": "Suggested Area",
    "population": 5619.53902053833,
    "count": 599
  },
  {
    "id": "5783927e-588e-4312-9487-23a6449988c5",
    "GID_2": "PHL.59.23_1",
    "municipality": "Taytay, Palawan",
    "suggested_area": true,
    "score": 233200,
    "longitude": 119.5944424201469,
    "latitude": 11.184166045950276,
    "facility_name": "Suggested Area",
    "population": 10766.628860473633,
    "count": 583
  },
  {
    "id": "829826f1-e528-4068-9559-b5d2f19e0c46",
    "GID_2": "PHL.12.34_1",
    "municipality": "Tingloy, Batangas",
    "suggested_area": true,
    "score": 195600,
    "longitude": 120.82999754905988,
    "latitude": 13.687500408615454,
    "facility_name": "Suggested Area",
    "population": 7177.7450132369995,
    "count": 489
  },
  {
    "id": "76a0ad22-be45-4322-a97f-fda6efcf25e7",
    "GID_2": "PHL.15.31_1",
    "municipality": "Loon, Bohol",
    "suggested_area": true,
    "score": 190400,
    "longitude": 123.76777431241311,
    "latitude": 9.891387736603155,
    "facility_name": "Suggested Area",
    "population": 4092.7652802467346,
    "count": 476
  },
  {
    "id": "59d23605-0a5b-4ed7-a400-69bb15d17222",
    "GID_2": "PHL.43.4_1",
    "municipality": "Babatngon, Leyte",
    "suggested_area": true,
    "score": 189600,
    "longitude": 124.8786072621714,
    "latitude": 11.440555040262995,
    "facility_name": "Suggested Area",
    "population": 10268.261311531067,
    "count": 474
  },
  {
    "id": "c2c4d22d-3c73-41a1-96f8-3af5c76a2d4c",
    "GID_2": "PHL.5.16_1",
    "municipality": "Rapu-Rapu, Albay",
    "suggested_area": true,
    "score": 188800,
    "longitude": 123.96666313262415,
    "latitude": 13.303611361877074,
    "facility_name": "Suggested Area",
    "population": 15529.859366416931,
    "count": 472
  },
  {
    "id": "2bba64e7-056d-40ee-a0f2-8ed1a44e809c",
    "GID_2": "PHL.36.13_1",
    "municipality": "Carles, Iloilo",
    "suggested_area": true,
    "score": 186400,
    "longitude": 123.358052231669,
    "latitude": 11.63805512147137,
    "facility_name": "Suggested Area",
    "population": 14342.454816818237,
    "count": 466
  },
  {
    "id": "75f7b4db-ae2e-48c7-9f30-bf4e26960d80",
    "GID_2": "PHL.43.2_1",
    "municipality": "Alangalang, Leyte",
    "suggested_area": true,
    "score": 181600,
    "longitude": 124.88027392826255,
    "latitude": 11.275554972416598,
    "facility_name": "Suggested Area",
    "population": 9057.567163467407,
    "count": 454
  },
  {
    "id": "62b91ee6-a1e0-4ef9-89c6-b6d3b1e8a890",
    "GID_2": "PHL.28.6_1",
    "municipality": "Jose Abad Santos, Davao del Sur",
    "suggested_area": true,
    "score": 180400,
    "longitude": 125.65777365978796,
    "latitude": 6.027775036835044,
    "facility_name": "Suggested Area",
    "population": 32465.662187576294,
    "count": 451
  },
  {
    "id": "3b36b50c-274b-4779-836c-a59064548b67",
    "GID_2": "PHL.61.14_1",
    "municipality": "Bolinao, Pangasinan",
    "suggested_area": true,
    "score": 163200,
    "longitude": 119.92249786242446,
    "latitude": 16.443057097212,
    "facility_name": "Suggested Area",
    "population": 5049.984706401825,
    "count": 408
  },
  {
    "id": "cfe76082-472a-49d0-a723-0fde2bdeb266",
    "GID_2": "PHL.55.32_1",
    "municipality": "Zaragoza, Nueva Ecija",
    "suggested_area": true,
    "score": 162000,
    "longitude": 120.82166421860411,
    "latitude": 15.43361223769968,
    "facility_name": "Suggested Area",
    "population": 2445.7709720134735,
    "count": 405
  },
  {
    "id": "2eff4f0d-9e3e-41e3-946a-e0d99fab5bb1",
    "GID_2": "PHL.9.6_1",
    "municipality": "Lantawan, Basilan",
    "suggested_area": true,
    "score": 159200,
    "longitude": 121.55055285580627,
    "latitude": 6.835275368866453,
    "facility_name": "Suggested Area",
    "population": 5125.708550453186,
    "count": 398
  },
  {
    "id": "99e79cc4-3bc0-450e-9734-75ded1a3b5b1",
    "GID_2": "PHL.46.20_1",
    "municipality": "San Pascual, Masbate",
    "suggested_area": true,
    "score": 158000,
    "longitude": 122.86305240259419,
    "latitude": 13.163611304311644,
    "facility_name": "Suggested Area",
    "population": 11121.269756317139,
    "count": 395
  },
  {
    "id": "1747b1a8-444e-4d5b-b7a9-1764a7c85298",
    "GID_2": "PHL.73.18_1",
    "municipality": "Tongkil, Sulu",
    "suggested_area": true,
    "score": 156400,
    "longitude": 121.83610831275732,
    "latitude": 6.241941791563798,
    "facility_name": "Suggested Area",
    "population": 6018.06561422348,
    "count": 391
  },
  {
    "id": "05af9264-2a4e-422e-9ef6-d900bdfe4d85",
    "GID_2": "PHL.73.2_1",
    "municipality": "Indanan, Sulu",
    "suggested_area": true,
    "score": 149600,
    "longitude": 120.965830835491,
    "latitude": 6.044163932462796,
    "facility_name": "Suggested Area",
    "population": 13937.086198806763,
    "count": 374
  },
  {
    "id": "a902643a-738d-4ff5-ae96-2328f0e6ed47",
    "GID_2": "PHL.15.44_1",
    "municipality": "Talibon, Bohol",
    "suggested_area": true,
    "score": 140800,
    "longitude": 124.2988852401296,
    "latitude": 10.246943438358054,
    "facility_name": "Suggested Area",
    "population": 6404.388259887695,
    "count": 352
  },
  {
    "id": "e919c63c-13d1-4f2c-9986-a23c53957fcd",
    "GID_2": "PHL.66.6_1",
    "municipality": "Daram, Samar",
    "suggested_area": true,
    "score": 130400,
    "longitude": 124.72582953714686,
    "latitude": 11.726110713233753,
    "facility_name": "Suggested Area",
    "population": 9256.352902412415,
    "count": 326
  },
  {
    "id": "38ac4d42-dc3b-48f2-8329-8f5c35c28106",
    "GID_2": "PHL.25.37_1",
    "municipality": "Pilar, Cebu",
    "suggested_area": true,
    "score": 128400,
    "longitude": 124.55388515207615,
    "latitude": 10.778054767852305,
    "facility_name": "Suggested Area",
    "population": 3442.4493083953857,
    "count": 321
  },
  {
    "id": "bbe0ea2e-4b42-493d-9163-88fa5b13888e",
    "GID_2": "PHL.57.9_1",
    "municipality": "Sablayan, Occidental Mindoro",
    "suggested_area": true,
    "score": 127600,
    "longitude": 120.77416423500622,
    "latitude": 12.962777888397905,
    "facility_name": "Suggested Area",
    "population": 2244.77911233902,
    "count": 319
  },
  {
    "id": "c34bf9b7-f845-4b89-9c06-d10cf1b04540",
    "GID_2": "PHL.31.9_1",
    "municipality": "Guiuan, Eastern Samar",
    "suggested_area": true,
    "score": 123600,
    "longitude": 125.70388475497656,
    "latitude": 11.062499329256509,
    "facility_name": "Suggested Area",
    "population": 6280.055278301239,
    "count": 309
  },
  {
    "id": "626f13e9-3668-42a6-b416-03f9075d5df5",
    "GID_2": "PHL.73.14_1",
    "municipality": "Patikul, Sulu",
    "suggested_area": true,
    "score": 123200,
    "longitude": 121.10971967469396,
    "latitude": 6.090552840426093,
    "facility_name": "Suggested Area",
    "population": 4045.3338230848312,
    "count": 308
  },
  {
    "id": "d5b16a5f-7a27-4fc1-9ee8-31e5d4fd3f83",
    "GID_2": "PHL.73.11_1",
    "municipality": "Pangutaran, Sulu",
    "suggested_area": true,
    "score": 121600,
    "longitude": 120.78527534228058,
    "latitude": 6.426386311848651,
    "facility_name": "Suggested Area",
    "population": 5464.147268295288,
    "count": 304
  },
  {
    "id": "e081ce39-9f66-4d7e-a586-dda6d0a605a4",
    "GID_2": "PHL.77.6_1",
    "municipality": "Sibutu, Tawi-Tawi",
    "suggested_area": true,
    "score": 119600,
    "longitude": 119.45194246935324,
    "latitude": 4.858607889425469,
    "facility_name": "Suggested Area",
    "population": 8266.655687332153,
    "count": 299
  },
  {
    "id": "5cf91130-fdd2-4dae-a2c0-43af269e75cd",
    "GID_2": "PHL.59.4_1",
    "municipality": "Balabac, Palawan",
    "suggested_area": true,
    "score": 119200,
    "longitude": 117.31666542889481,
    "latitude": 8.349164880243187,
    "facility_name": "Suggested Area",
    "population": 12807.022354125977,
    "count": 298
  },
  {
    "id": "44e8f1cc-5347-4417-a752-f1dae837ed5f",
    "GID_2": "PHL.25.45_1",
    "municipality": "Santa Fe, Cebu",
    "suggested_area": true,
    "score": 111200,
    "longitude": 123.89499649070453,
    "latitude": 11.347777224335273,
    "facility_name": "Suggested Area",
    "population": 5778.55046749115,
    "count": 278
  },
  {
    "id": "e084d929-8512-4ea0-af1a-ee77ceb8a277",
    "GID_2": "PHL.9.8_1",
    "municipality": "Sumisip, Basilan",
    "suggested_area": true,
    "score": 111200,
    "longitude": 121.91305273063226,
    "latitude": 6.458052991536171,
    "facility_name": "Suggested Area",
    "population": 5117.831267356873,
    "count": 278
  },
  {
    "id": "4797addd-32a0-4ecd-a6fe-0753d20c235b",
    "GID_2": "PHL.77.5_1",
    "municipality": "Sapa-Sapa, Tawi-Tawi",
    "suggested_area": true,
    "score": 106800,
    "longitude": 120.1674977778241,
    "latitude": 5.152774677049011,
    "facility_name": "Suggested Area",
    "population": 9613.625957489014,
    "count": 267
  },
  {
    "id": "89d48d31-d9a2-45bd-8597-0f942f812bba",
    "GID_2": "PHL.66.21_1",
    "municipality": "Santo Nino, Samar",
    "suggested_area": true,
    "score": 102400,
    "longitude": 124.43055186133076,
    "latitude": 11.984166374898443,
    "facility_name": "Suggested Area",
    "population": 10938.36784362793,
    "count": 256
  },
  {
    "id": "0ecfcab5-2b13-49f1-abcb-14340831ac9f",
    "GID_2": "PHL.6.9_1",
    "municipality": "Libertad, Antique",
    "suggested_area": true,
    "score": 102400,
    "longitude": 121.90444162249463,
    "latitude": 11.765832951789024,
    "facility_name": "Suggested Area",
    "population": 4820.3766746521,
    "count": 256
  },
  {
    "id": "7cf35d80-aac8-47f6-a265-070da3bc1e8f",
    "GID_2": "PHL.15.36_1",
    "municipality": "Pres. Carlos P. Garcia, Bohol",
    "suggested_area": true,
    "score": 102000,
    "longitude": 124.61721846354,
    "latitude": 10.265554557121712,
    "facility_name": "Suggested Area",
    "population": 3450.2051315307617,
    "count": 255
  },
  {
    "id": "d1975714-42ca-470f-8a62-2a09dda970aa",
    "GID_2": "PHL.46.12_1",
    "municipality": "Milagros, Masbate",
    "suggested_area": true,
    "score": 101600,
    "longitude": 123.5402743909685,
    "latitude": 12.226944252501987,
    "facility_name": "Suggested Area",
    "population": 5415.1715450286865,
    "count": 254
  },
  {
    "id": "5e1b496a-4c31-42c2-a41a-1d29bf95aa51",
    "GID_2": "PHL.71.17_1",
    "municipality": "Silago, Southern Leyte",
    "suggested_area": true,
    "score": 99200,
    "longitude": 125.15194050112065,
    "latitude": 10.620832480983191,
    "facility_name": "Suggested Area",
    "population": 4083.3887186050415,
    "count": 248
  },
  {
    "id": "c17831f0-9504-402e-ac4a-a93435418b2e",
    "GID_2": "PHL.78.4_1",
    "municipality": "Castillejos, Zambales",
    "suggested_area": true,
    "score": 97600,
    "longitude": 120.17055333232454,
    "latitude": 14.941945368867279,
    "facility_name": "Suggested Area",
    "population": 2940.064761161804,
    "count": 244
  },
  {
    "id": "704e0797-0d8a-4899-8d38-78907eebdd9e",
    "GID_2": "PHL.75.2_1",
    "municipality": "Bayabas, Surigao del Sur",
    "suggested_area": true,
    "score": 96800,
    "longitude": 126.25416234274131,
    "latitude": 8.99916514751268,
    "facility_name": "Suggested Area",
    "population": 4595.72994852066,
    "count": 242
  },
  {
    "id": "beec17c7-fc9a-4c7d-b39d-4b825242d05c",
    "GID_2": "PHL.43.9_1",
    "municipality": "Calubian, Leyte",
    "suggested_area": true,
    "score": 96400,
    "longitude": 124.31416301263184,
    "latitude": 11.563332868524741,
    "facility_name": "Suggested Area",
    "population": 3843.436002254486,
    "count": 241
  },
  {
    "id": "a2f95018-fcff-4439-95a1-e0a9771db69e",
    "GID_2": "PHL.62.34_1",
    "municipality": "San Andres, Quezon",
    "suggested_area": true,
    "score": 93200,
    "longitude": 122.65721914033668,
    "latitude": 13.42916696905877,
    "facility_name": "Suggested Area",
    "population": 6453.822196960449,
    "count": 233
  },
  {
    "id": "38ca881a-0892-45f1-87da-7ec963bc21a1",
    "GID_2": "PHL.46.10_1",
    "municipality": "Mandaon, Masbate",
    "suggested_area": true,
    "score": 92000,
    "longitude": 123.25999670997278,
    "latitude": 12.326388737836162,
    "facility_name": "Suggested Area",
    "population": 6091.347985267639,
    "count": 230
  },
  {
    "id": "e2b329c4-afe1-4649-bd63-82a54df38511",
    "GID_2": "PHL.26.3_1",
    "municipality": "Mabini, Compostela Valley",
    "suggested_area": true,
    "score": 89200,
    "longitude": 125.83860693067817,
    "latitude": 7.254997763671743,
    "facility_name": "Suggested Area",
    "population": 3208.769076347351,
    "count": 223
  },
  {
    "id": "d0aa9c79-0c21-43f1-8ba2-899a00a36206",
    "GID_2": "PHL.62.36_1",
    "municipality": "San Francisco, Quezon",
    "suggested_area": true,
    "score": 88000,
    "longitude": 122.49638586253823,
    "latitude": 13.390833619963473,
    "facility_name": "Suggested Area",
    "population": 4756.779534339905,
    "count": 220
  },
  {
    "id": "c368bd26-b329-42b0-b811-d396439378ec",
    "GID_2": "PHL.5.18_1",
    "municipality": "Tabaco City, Albay",
    "suggested_area": true,
    "score": 87200,
    "longitude": 123.76749653473125,
    "latitude": 13.404722514563218,
    "facility_name": "Suggested Area",
    "population": 4953.266586303711,
    "count": 218
  },
  {
    "id": "406754a1-4828-4caf-bc8d-ea3edf345b4b",
    "GID_2": "PHL.68.1_1",
    "municipality": "Enrique Villanueva, Siquijor",
    "suggested_area": true,
    "score": 87200,
    "longitude": 123.6066632569328,
    "latitude": 9.300276382436579,
    "facility_name": "Suggested Area",
    "population": 1486.6806063652039,
    "count": 218
  },
  {
    "id": "a0a1861e-784d-4283-b581-26bce336b6f7",
    "GID_2": "PHL.2.2_1",
    "municipality": "Butuan City, Agusan del Norte",
    "suggested_area": true,
    "score": 86000,
    "longitude": 125.4672181700327,
    "latitude": 8.991665144428818,
    "facility_name": "Suggested Area",
    "population": 3289.990334749222,
    "count": 215
  },
  {
    "id": "ac6b0eed-6817-4dd5-8c5c-5eca9dac9223",
    "GID_2": "PHL.4.4_1",
    "municipality": "Batan, Aklan",
    "suggested_area": true,
    "score": 84400,
    "longitude": 122.44638587980361,
    "latitude": 11.607777331243925,
    "facility_name": "Suggested Area",
    "population": 1983.6162481307983,
    "count": 211
  },
  {
    "id": "3f86b0e1-f430-4e9a-af8a-12017cb06453",
    "GID_2": "PHL.6.10_1",
    "municipality": "Pandan, Antique",
    "suggested_area": true,
    "score": 82800,
    "longitude": 122.0569415698373,
    "latitude": 11.741666275185468,
    "facility_name": "Suggested Area",
    "population": 2485.3794775009155,
    "count": 207
  },
  {
    "id": "95d9eee1-527e-40f2-ad11-8d43197a8e27",
    "GID_2": "PHL.77.10_1",
    "municipality": "Tandubas, Tawi-Tawi",
    "suggested_area": true,
    "score": 82800,
    "longitude": 120.23055331160609,
    "latitude": 5.322774746950082,
    "facility_name": "Suggested Area",
    "population": 10199.384642601013,
    "count": 207
  },
  {
    "id": "d45e0222-83b1-4e33-bc45-f4da2d59b1ab",
    "GID_2": "PHL.73.13_1",
    "municipality": "Pata, Sulu",
    "suggested_area": true,
    "score": 82400,
    "longitude": 121.08888634855454,
    "latitude": 5.8591638563936,
    "facility_name": "Suggested Area",
    "population": 3567.0815143585205,
    "count": 206
  },
  {
    "id": "b43c261f-de08-454d-a2d9-1036eeac7b05",
    "GID_2": "PHL.57.3_1",
    "municipality": "Looc, Occidental Mindoro",
    "suggested_area": true,
    "score": 82000,
    "longitude": 120.23888664206186,
    "latitude": 13.802222678009349,
    "facility_name": "Suggested Area",
    "population": 2635.5551357269287,
    "count": 205
  },
  {
    "id": "a273f474-f2c2-44b8-a22b-03e5917da398",
    "GID_2": "PHL.43.7_1",
    "municipality": "Baybay City, Leyte",
    "suggested_area": true,
    "score": 81600,
    "longitude": 124.77860729670216,
    "latitude": 10.639721377638844,
    "facility_name": "Suggested Area",
    "population": 4700.294660568237,
    "count": 204
  },
  {
    "id": "ce181ac4-49ee-4df6-bf62-7441e5e33b84",
    "GID_2": "PHL.14.7_1",
    "municipality": "Maripipi, Biliran",
    "suggested_area": true,
    "score": 81200,
    "longitude": 124.3299963404978,
    "latitude": 11.815277416564117,
    "facility_name": "Suggested Area",
    "population": 3775.867443084717,
    "count": 203
  },
  {
    "id": "ce580f44-356a-4732-917e-5c446f4679ce",
    "GID_2": "PHL.62.19_1",
    "municipality": "Lucena City, Quezon",
    "suggested_area": true,
    "score": 80800,
    "longitude": 121.66388615000474,
    "latitude": 13.929444952543014,
    "facility_name": "Suggested Area",
    "population": 1439.7997727394106,
    "count": 202
  },
  {
    "id": "820b29fc-e7db-4dbb-8efb-370faa4c587a",
    "GID_2": "PHL.75.18_1",
    "municipality": "Tago, Surigao del Sur",
    "suggested_area": true,
    "score": 80000,
    "longitude": 126.20499569305227,
    "latitude": 9.016387376816365,
    "facility_name": "Suggested Area",
    "population": 5222.583589553833,
    "count": 200
  },
  {
    "id": "8c65a8ab-a276-4214-a00c-61ed07ed48db",
    "GID_2": "PHL.29.1_1",
    "municipality": "Baganga, Davao Oriental",
    "suggested_area": true,
    "score": 80000,
    "longitude": 126.55888445974271,
    "latitude": 7.705275726596637,
    "facility_name": "Suggested Area",
    "population": 1733.2229681015015,
    "count": 200
  },
  {
    "id": "a0af6672-67a8-4406-b6e7-f8da29e4ba1b",
    "GID_2": "PHL.46.7_1",
    "municipality": "Claveria, Masbate",
    "suggested_area": true,
    "score": 79200,
    "longitude": 123.14249675054643,
    "latitude": 12.987222342893457,
    "facility_name": "Suggested Area",
    "population": 7737.579020500183,
    "count": 198
  },
  {
    "id": "923871fb-c8d8-46ef-8bad-3eb58d76f971",
    "GID_2": "PHL.81.7_1",
    "municipality": "Mabuhay, Zamboanga Sibugay",
    "suggested_area": true,
    "score": 78800,
    "longitude": 122.85860795968445,
    "latitude": 7.434720059793019,
    "facility_name": "Suggested Area",
    "population": 7089.666145324707,
    "count": 197
  },
  {
    "id": "9ff968f3-5346-4910-9e90-c089e3c0f0ad",
    "GID_2": "PHL.62.30_1",
    "municipality": "Polillo, Quezon",
    "suggested_area": true,
    "score": 76800,
    "longitude": 121.88805273926495,
    "latitude": 14.82416754266144,
    "facility_name": "Suggested Area",
    "population": 4313.885238647461,
    "count": 192
  },
  {
    "id": "993445da-518b-4f32-b96d-dd18bc1917bc",
    "GID_2": "PHL.22.5_1",
    "municipality": "Ivisan, Capiz",
    "suggested_area": true,
    "score": 76800,
    "longitude": 122.64888580988091,
    "latitude": 11.573888428420547,
    "facility_name": "Suggested Area",
    "population": 2377.4815859794617,
    "count": 192
  },
  {
    "id": "602f157b-f05d-4c5f-b417-65db8dc0e4c4",
    "GID_2": "PHL.14.3_1",
    "municipality": "Cabucgayan, Biliran",
    "suggested_area": true,
    "score": 76400,
    "longitude": 124.61555179744884,
    "latitude": 11.514443959533638,
    "facility_name": "Suggested Area",
    "population": 2479.9400272369385,
    "count": 191
  },
  {
    "id": "df149ead-7953-4b16-b7b5-2311a37a65df",
    "GID_2": "PHL.39.13_1",
    "municipality": "Rosario, La Union",
    "suggested_area": true,
    "score": 76000,
    "longitude": 120.4647198974153,
    "latitude": 16.283612587205504,
    "facility_name": "Suggested Area",
    "population": 3903.853861808777,
    "count": 190
  },
  {
    "id": "07f04b4e-54dd-4ec4-80fd-39ac0333d8a6",
    "GID_2": "PHL.20.16_1",
    "municipality": "Garchitorena, Camarines Sur",
    "suggested_area": true,
    "score": 76000,
    "longitude": 123.56638549306325,
    "latitude": 13.963889411150381,
    "facility_name": "Suggested Area",
    "population": 6387.89581489563,
    "count": 190
  },
  {
    "id": "a7604372-7757-4f91-8290-0cf9fdd8286a",
    "GID_2": "PHL.43.32_1",
    "municipality": "Palompon, Leyte",
    "suggested_area": true,
    "score": 76000,
    "longitude": 124.39527409573466,
    "latitude": 11.101943789919785,
    "facility_name": "Suggested Area",
    "population": 1975.6104674339294,
    "count": 190
  },
  {
    "id": "15930043-2c73-4e07-b10e-0347f86a8f90",
    "GID_2": "PHL.15.24_1",
    "municipality": "Guindulman, Bohol",
    "suggested_area": true,
    "score": 74800,
    "longitude": 124.4999962817955,
    "latitude": 9.754443235849669,
    "facility_name": "Suggested Area",
    "population": 2044.271903514862,
    "count": 187
  },
  {
    "id": "2272f144-45e4-43fd-88ed-07fcb8f24985",
    "GID_2": "PHL.45.2_1",
    "municipality": "Buenavista, Marinduque",
    "suggested_area": true,
    "score": 73600,
    "longitude": 121.95527493827692,
    "latitude": 13.242500225638196,
    "facility_name": "Suggested Area",
    "population": 3073.415481567383,
    "count": 184
  },
  {
    "id": "3ba7200c-fb43-4327-ace4-f760ae316832",
    "GID_2": "PHL.58.7_1",
    "municipality": "Mansalay, Oriental Mindoro",
    "suggested_area": true,
    "score": 73600,
    "longitude": 121.24583073880487,
    "latitude": 12.605277741400467,
    "facility_name": "Suggested Area",
    "population": 5562.73779964447,
    "count": 184
  },
  {
    "id": "6bd5bb4e-ac2e-44ab-9014-031ac3a54358",
    "GID_2": "PHL.25.54_1",
    "municipality": "Tudela, Cebu",
    "suggested_area": true,
    "score": 73600,
    "longitude": 124.50999627834243,
    "latitude": 10.677221393058156,
    "facility_name": "Suggested Area",
    "population": 1404.4838695526123,
    "count": 184
  },
  {
    "id": "ef2832e9-6528-4461-814d-f54e8d702df4",
    "GID_2": "PHL.54.11_1",
    "municipality": "Lavezares, Northern Samar",
    "suggested_area": true,
    "score": 73200,
    "longitude": 124.37721854641383,
    "latitude": 12.616666634972258,
    "facility_name": "Suggested Area",
    "population": 3609.083595275879,
    "count": 183
  },
  {
    "id": "c9bfb775-db7a-4168-86e0-7e21b7eeb1e7",
    "GID_2": "PHL.54.18_1",
    "municipality": "San Antonio, Northern Samar",
    "suggested_area": true,
    "score": 73200,
    "longitude": 124.24860747971312,
    "latitude": 12.458611014425735,
    "facility_name": "Suggested Area",
    "population": 5519.073244571686,
    "count": 183
  },
  {
    "id": "bd5805eb-8f81-40ab-a210-7aa5d9e8ab88",
    "GID_2": "PHL.6.5_1",
    "municipality": "Caluya, Antique",
    "suggested_area": true,
    "score": 72000,
    "longitude": 121.57944173471961,
    "latitude": 12.097499754832363,
    "facility_name": "Suggested Area",
    "population": 2536.6239228248596,
    "count": 180
  },
  {
    "id": "5e4606f8-0dd2-4330-a83e-ebc2726a65c4",
    "GID_2": "PHL.65.12_1",
    "municipality": "San Agustin, Romblon",
    "suggested_area": true,
    "score": 70800,
    "longitude": 122.15444153616981,
    "latitude": 12.632222196923973,
    "facility_name": "Suggested Area",
    "population": 3583.8305797576904,
    "count": 177
  },
  {
    "id": "d2f6c5c7-8057-4038-9903-f1184b26ae0f",
    "GID_2": "PHL.59.11_1",
    "municipality": "Cuyo, Palawan",
    "suggested_area": true,
    "score": 70800,
    "longitude": 120.68499759912949,
    "latitude": 11.320554990919772,
    "facility_name": "Suggested Area",
    "population": 3214.45103597641,
    "count": 177
  },
  {
    "id": "1275146f-5882-40cc-ba4c-bc3901cc945f",
    "GID_2": "PHL.15.8_1",
    "municipality": "Bien Unido, Bohol",
    "suggested_area": true,
    "score": 70800,
    "longitude": 124.44666296687858,
    "latitude": 10.251943440413962,
    "facility_name": "Suggested Area",
    "population": 6059.921312332153,
    "count": 177
  },
  {
    "id": "bbef273c-53ac-4507-8350-f85fd8e09c05",
    "GID_2": "PHL.54.2_1",
    "municipality": "Biri, Northern Samar",
    "suggested_area": true,
    "score": 70000,
    "longitude": 124.28444080067293,
    "latitude": 12.75333335783375,
    "facility_name": "Suggested Area",
    "population": 4187.519847869873,
    "count": 175
  },
  {
    "id": "1b68c7c2-6ac2-407a-a1a5-ae6629216485",
    "GID_2": "PHL.25.43_1",
    "municipality": "San Francisco, Cebu",
    "suggested_area": true,
    "score": 69600,
    "longitude": 124.32499634222434,
    "latitude": 10.716110297937442,
    "facility_name": "Suggested Area",
    "population": 3204.442727088928,
    "count": 174
  },
  {
    "id": "2fd41b3b-8e6c-4c4c-ba72-91fb349c770c",
    "GID_2": "PHL.76.16_1",
    "municipality": "Santa Ignacia, Tarlac",
    "suggested_area": true,
    "score": 68400,
    "longitude": 120.50749766042159,
    "latitude": 15.545001172389636,
    "facility_name": "Suggested Area",
    "population": 686.4286026954651,
    "count": 171
  },
  {
    "id": "89dc2c75-be30-460b-b2e5-ab92cc7e9d4b",
    "GID_2": "PHL.22.9_1",
    "municipality": "Panay, Capiz",
    "suggested_area": true,
    "score": 67200,
    "longitude": 122.80916353231355,
    "latitude": 11.60805510913592,
    "facility_name": "Suggested Area",
    "population": 4590.876081466675,
    "count": 168
  },
  {
    "id": "9b49067e-2298-4c4f-bf20-d3eefe8e7d8f",
    "GID_2": "PHL.71.7_1",
    "municipality": "Limasawa, Southern Leyte",
    "suggested_area": true,
    "score": 66400,
    "longitude": 125.06332942060763,
    "latitude": 9.96249887695385,
    "facility_name": "Suggested Area",
    "population": 3829.2408599853516,
    "count": 166
  },
  {
    "id": "770047d5-b59e-46a7-9f45-af121dc997a8",
    "GID_2": "PHL.54.4_1",
    "municipality": "Capul, Northern Samar",
    "suggested_area": true,
    "score": 65600,
    "longitude": 124.14138529451346,
    "latitude": 12.481944357354731,
    "facility_name": "Suggested Area",
    "population": 6470.439256668091,
    "count": 164
  },
  {
    "id": "72a3d832-b1a0-41c1-90bc-966cb1629b45",
    "GID_2": "PHL.72.10_1",
    "municipality": "Palimbang, Sultan Kudarat",
    "suggested_area": true,
    "score": 64000,
    "longitude": 124.06277421054736,
    "latitude": 6.385830739617266,
    "facility_name": "Suggested Area",
    "population": 8688.413398742676,
    "count": 160
  },
  {
    "id": "418d8081-7c17-47ae-b87e-8147f9a5312e",
    "GID_2": "PHL.36.23_1",
    "municipality": "Lambunao, Iloilo",
    "suggested_area": true,
    "score": 62800,
    "longitude": 122.33916369460604,
    "latitude": 11.2155549477457,
    "facility_name": "Suggested Area",
    "population": 1056.7084383964539,
    "count": 157
  },
  {
    "id": "22b617c3-f7cb-43ba-813d-2eb9e710f33a",
    "GID_2": "PHL.67.3_1",
    "municipality": "Kiamba, Sarangani",
    "suggested_area": true,
    "score": 62400,
    "longitude": 124.53749626884647,
    "latitude": 6.019441700075171,
    "facility_name": "Suggested Area",
    "population": 3927.569564819336,
    "count": 156
  },
  {
    "id": "64d417a9-9104-4c84-9eae-80d35a307145",
    "GID_2": "PHL.46.16_1",
    "municipality": "Pio V. Corpuz, Masbate",
    "suggested_area": true,
    "score": 61600,
    "longitude": 124.02805200031499,
    "latitude": 11.940833023747238,
    "facility_name": "Suggested Area",
    "population": 3517.3669290542603,
    "count": 154
  },
  {
    "id": "3f1c4c93-acb0-4740-93da-79d321963166",
    "GID_2": "PHL.14.4_1",
    "municipality": "Caibiran, Biliran",
    "suggested_area": true,
    "score": 61200,
    "longitude": 124.57221847907884,
    "latitude": 11.59499954821216,
    "facility_name": "Suggested Area",
    "population": 3946.941234588623,
    "count": 153
  },
  {
    "id": "78ed7e63-ede0-49df-9759-3f5dd67c4e77",
    "GID_2": "PHL.29.9_1",
    "municipality": "Mati City, Davao Oriental",
    "suggested_area": true,
    "score": 61200,
    "longitude": 126.30249565938477,
    "latitude": 6.936108743660577,
    "facility_name": "Suggested Area",
    "population": 3833.9487228393555,
    "count": 153
  },
  {
    "id": "7e11067a-d39a-4c8f-9f2d-be669e5bb55b",
    "GID_2": "PHL.68.3_1",
    "municipality": "Lazi, Siquijor",
    "suggested_area": true,
    "score": 60800,
    "longitude": 123.61555214275229,
    "latitude": 9.103887412794759,
    "facility_name": "Suggested Area",
    "population": 1401.4380493164062,
    "count": 152
  },
  {
    "id": "4c173443-70cd-47df-a422-af563aac0d92",
    "GID_2": "PHL.48.5_1",
    "municipality": "Clarin, Misamis Occidental",
    "suggested_area": true,
    "score": 60400,
    "longitude": 123.85749650365356,
    "latitude": 8.23999816868919,
    "facility_name": "Suggested Area",
    "population": 3257.484564781189,
    "count": 151
  },
  {
    "id": "d9942d8b-d403-474f-8917-2669e2dd3c9b",
    "GID_2": "PHL.73.15_1",
    "municipality": "Siasi, Sulu",
    "suggested_area": true,
    "score": 60400,
    "longitude": 120.82666421687757,
    "latitude": 5.521941495511063,
    "facility_name": "Suggested Area",
    "population": 11181.11054801941,
    "count": 151
  },
  {
    "id": "6f315f48-4dcf-43c8-83b2-23215890e0c5",
    "GID_2": "PHL.45.5_1",
    "municipality": "Santa Cruz, Marinduque",
    "suggested_area": true,
    "score": 60000,
    "longitude": 121.93805272199957,
    "latitude": 13.537222569044786,
    "facility_name": "Suggested Area",
    "population": 1292.3278594017029,
    "count": 150
  },
  {
    "id": "a5a10078-df2b-4910-a10a-73485c3c0c67",
    "GID_2": "PHL.62.25_1",
    "municipality": "Panukulan, Quezon",
    "suggested_area": true,
    "score": 59200,
    "longitude": 121.9127749529504,
    "latitude": 15.046112078365367,
    "facility_name": "Suggested Area",
    "population": 4070.3899993896484,
    "count": 148
  },
  {
    "id": "cada7c4b-e608-41c5-a526-17bc698bce45",
    "GID_2": "PHL.41.20_1",
    "municipality": "Sultan Naga Dimaporo, Lanao del Norte",
    "suggested_area": true,
    "score": 59200,
    "longitude": 123.62721880539246,
    "latitude": 7.832220223238713,
    "facility_name": "Suggested Area",
    "population": 2462.3612084388733,
    "count": 148
  },
  {
    "id": "6de0119b-ad44-4f2f-865b-220813e79564",
    "GID_2": "PHL.75.9_1",
    "municipality": "Hinatuan, Surigao del Sur",
    "suggested_area": true,
    "score": 58400,
    "longitude": 126.35999563952959,
    "latitude": 8.531387177391842,
    "facility_name": "Suggested Area",
    "population": 4390.0902099609375,
    "count": 146
  },
  {
    "id": "962ff9d8-4db9-4f73-b0c4-4fedc376ad10",
    "GID_2": "PHL.48.16_1",
    "municipality": "Tangub City, Misamis Occidental",
    "suggested_area": true,
    "score": 58000,
    "longitude": 123.78027430809676,
    "latitude": 8.082775881820076,
    "facility_name": "Suggested Area",
    "population": 3306.1363563537598,
    "count": 145
  },
  {
    "id": "b21899b8-1550-4eb8-8fa7-b2bdf9e72510",
    "GID_2": "PHL.61.19_1",
    "municipality": "Dasol, Pangasinan",
    "suggested_area": true,
    "score": 57600,
    "longitude": 119.84527566686766,
    "latitude": 15.96889023557528,
    "facility_name": "Suggested Area",
    "population": 634.3122763633728,
    "count": 144
  },
  {
    "id": "46e7621f-b45f-4869-a145-8b1724c413c9",
    "GID_2": "PHL.59.2_1",
    "municipality": "Agutaya, Palawan",
    "suggested_area": true,
    "score": 57600,
    "longitude": 120.80471978001071,
    "latitude": 11.45333282329476,
    "facility_name": "Suggested Area",
    "population": 4466.8323402404785,
    "count": 144
  },
  {
    "id": "f332746f-6732-4d0b-998e-25c0eb80231a",
    "GID_2": "PHL.30.1_1",
    "municipality": "Basilisa, Dinagat Islands",
    "suggested_area": true,
    "score": 56800,
    "longitude": 125.53721814586116,
    "latitude": 10.074998923211785,
    "facility_name": "Suggested Area",
    "population": 4709.224397659302,
    "count": 142
  },
  {
    "id": "3ceb9adf-4f33-4ed2-b5e9-96b50bd482a8",
    "GID_2": "PHL.77.9_1",
    "municipality": "South Ubian, Tawi-Tawi",
    "suggested_area": true,
    "score": 56400,
    "longitude": 120.64388650221436,
    "latitude": 5.233608043619785,
    "facility_name": "Suggested Area",
    "population": 4066.463843345642,
    "count": 141
  },
  {
    "id": "68eb98a0-7e9a-4645-bc03-0e61fe718186",
    "GID_2": "PHL.6.6_1",
    "municipality": "Culasi, Antique",
    "suggested_area": true,
    "score": 56000,
    "longitude": 121.92610828167963,
    "latitude": 11.476943944114327,
    "facility_name": "Suggested Area",
    "population": 3434.9405031204224,
    "count": 140
  },
  {
    "id": "af8982dd-2c1b-4945-ac43-bb5888435666",
    "GID_2": "PHL.43.1_1",
    "municipality": "Abuyog, Leyte",
    "suggested_area": true,
    "score": 56000,
    "longitude": 125.0499960918784,
    "latitude": 10.714999186369463,
    "facility_name": "Suggested Area",
    "population": 4665.308550834656,
    "count": 140
  },
  {
    "id": "e6942629-9d69-4695-88a9-261dc5df31c2",
    "GID_2": "PHL.59.14_1",
    "municipality": "Linapacan, Palawan",
    "suggested_area": true,
    "score": 55200,
    "longitude": 119.71805348857416,
    "latitude": 11.462499493730592,
    "facility_name": "Suggested Area",
    "population": 3574.6175212860107,
    "count": 138
  },
  {
    "id": "eec0c72e-dd89-4caf-86a1-7cd2c05b1764",
    "GID_2": "PHL.69.5_1",
    "municipality": "Castilla, Sorsogon",
    "suggested_area": true,
    "score": 54800,
    "longitude": 123.8430520641969,
    "latitude": 12.901944530051022,
    "facility_name": "Suggested Area",
    "population": 4012.6812686920166,
    "count": 137
  },
  {
    "id": "f308efec-0269-4b45-977d-663df0490f06",
    "GID_2": "PHL.9.3_1",
    "municipality": "Hadji Mohammad Ajul, Basilan",
    "suggested_area": true,
    "score": 54800,
    "longitude": 122.39610811938714,
    "latitude": 6.749997556023746,
    "facility_name": "Suggested Area",
    "population": 3565.32776927948,
    "count": 137
  },
  {
    "id": "4658e516-2770-4a57-921e-c814ac147ea6",
    "GID_2": "PHL.80.24_1",
    "municipality": "Tabina, Zamboanga del Sur",
    "suggested_area": true,
    "score": 54400,
    "longitude": 123.4088855474492,
    "latitude": 7.467220073156246,
    "facility_name": "Suggested Area",
    "population": 2908.554323196411,
    "count": 136
  },
  {
    "id": "dbf6e97b-518d-4703-9106-7845f8653e9a",
    "GID_2": "PHL.13.14_1",
    "municipality": "Tublay, Benguet",
    "suggested_area": true,
    "score": 52000,
    "longitude": 120.60388651602666,
    "latitude": 16.545279361466125,
    "facility_name": "Suggested Area",
    "population": 1155.9988145828247,
    "count": 130
  },
  {
    "id": "23b4a145-de01-43f9-bec1-c93907921fc0",
    "GID_2": "PHL.19.12_1",
    "municipality": "Vinzons, Camarines Norte",
    "suggested_area": true,
    "score": 51600,
    "longitude": 122.94610792947003,
    "latitude": 14.480834068154318,
    "facility_name": "Suggested Area",
    "population": 4964.690311431885,
    "count": 129
  },
  {
    "id": "a0249c3b-dfc5-42ed-87e8-04039a4ef2d9",
    "GID_2": "PHL.65.15_1",
    "municipality": "San Jose, Romblon",
    "suggested_area": true,
    "score": 50800,
    "longitude": 121.93999716577258,
    "latitude": 12.095833087480393,
    "facility_name": "Suggested Area",
    "population": 3952.676830291748,
    "count": 127
  },
  {
    "id": "78591ea9-4ec5-4dbc-9df0-fe7337f4f3b4",
    "GID_2": "PHL.80.22_1",
    "municipality": "San Pablo, Zamboanga del Sur",
    "suggested_area": true,
    "score": 50800,
    "longitude": 123.48110774473254,
    "latitude": 7.708886839192583,
    "facility_name": "Suggested Area",
    "population": 2036.2650299072266,
    "count": 127
  },
  {
    "id": "eea061db-1e73-40e7-834d-cc24c078d7f8",
    "GID_2": "PHL.23.8_1",
    "municipality": "San Andres, Catanduanes",
    "suggested_area": true,
    "score": 50000,
    "longitude": 124.07777420536775,
    "latitude": 13.695833745375301,
    "facility_name": "Suggested Area",
    "population": 3119.337413787842,
    "count": 125
  },
  {
    "id": "eed60911-6e96-44f8-a319-e68078bcac63",
    "GID_2": "PHL.58.3_1",
    "municipality": "Bongabong, Oriental Mindoro",
    "suggested_area": true,
    "score": 50000,
    "longitude": 121.50305287220839,
    "latitude": 12.736111128530066,
    "facility_name": "Suggested Area",
    "population": 1464.1773881912231,
    "count": 125
  },
  {
    "id": "eae0c120-61c5-45be-a5dd-045e79c39e8e",
    "GID_2": "PHL.57.4_1",
    "municipality": "Lubang, Occidental Mindoro",
    "suggested_area": true,
    "score": 48800,
    "longitude": 120.04333115403313,
    "latitude": 13.892222715015697,
    "facility_name": "Suggested Area",
    "population": 1192.695053100586,
    "count": 122
  },
  {
    "id": "2543e2e4-329a-4c73-8135-17c06d8ee83c",
    "GID_2": "PHL.55.24_1",
    "municipality": "San Antonio, Nueva Ecija",
    "suggested_area": true,
    "score": 48400,
    "longitude": 120.8074975568293,
    "latitude": 15.401390002228272,
    "facility_name": "Suggested Area",
    "population": 1385.8860330581665,
    "count": 121
  },
  {
    "id": "bc723488-f15d-483c-85c7-376f30c594fd",
    "GID_2": "PHL.69.15_1",
    "municipality": "Sorsogon City, Sorsogon",
    "suggested_area": true,
    "score": 48000,
    "longitude": 123.9405520305294,
    "latitude": 13.11638906267251,
    "facility_name": "Suggested Area",
    "population": 3606.562660217285,
    "count": 120
  },
  {
    "id": "c279bae6-6b98-4385-a587-fd1881c48012",
    "GID_2": "PHL.67.6_1",
    "municipality": "Malapatan, Sarangani",
    "suggested_area": true,
    "score": 48000,
    "longitude": 125.26666268372841,
    "latitude": 5.930552774636518,
    "facility_name": "Suggested Area",
    "population": 4663.8325119018555,
    "count": 120
  },
  {
    "id": "c73f574e-3894-46dc-a6f9-fd048702f6b4",
    "GID_2": "PHL.44.26_1",
    "municipality": "Parang, Maguindanao",
    "suggested_area": true,
    "score": 46800,
    "longitude": 124.0699964302757,
    "latitude": 7.374442257229933,
    "facility_name": "Suggested Area",
    "population": 2720.0194792747498,
    "count": 117
  },
  {
    "id": "85372afd-704b-4387-bf1f-6d1e18cab1c1",
    "GID_2": "PHL.21.1_1",
    "municipality": "Catarman, Camiguin",
    "suggested_area": true,
    "score": 46400,
    "longitude": 124.6341629021334,
    "latitude": 9.206943010726292,
    "facility_name": "Suggested Area",
    "population": 3511.600748062134,
    "count": 116
  },
  {
    "id": "a40f0e5e-d95f-461b-bdcf-2f1d07260665",
    "GID_2": "PHL.77.4_1",
    "municipality": "Panglima Sugala, Tawi-Tawi",
    "suggested_area": true,
    "score": 46400,
    "longitude": 120.1227755710448,
    "latitude": 5.192496915604409,
    "facility_name": "Suggested Area",
    "population": 5450.3527574539185,
    "count": 116
  },
  {
    "id": "7bf0f2b6-cfee-4824-b738-49c799d58f25",
    "GID_2": "PHL.65.6_1",
    "municipality": "Corcuera, Romblon",
    "suggested_area": true,
    "score": 46000,
    "longitude": 122.08777489252365,
    "latitude": 12.831666723376312,
    "facility_name": "Suggested Area",
    "population": 2458.0680351257324,
    "count": 115
  },
  {
    "id": "29e7967d-3b2a-4aea-b6a8-479a9ba35c0d",
    "GID_2": "PHL.54.8_1",
    "municipality": "Laoang, Northern Samar",
    "suggested_area": true,
    "score": 46000,
    "longitude": 124.99555166623404,
    "latitude": 12.645833313631723,
    "facility_name": "Suggested Area",
    "population": 3252.9688987731934,
    "count": 115
  },
  {
    "id": "933fa181-537e-40ed-a0b3-8556adb221d4",
    "GID_2": "PHL.31.19_1",
    "municipality": "Salcedo, Eastern Samar",
    "suggested_area": true,
    "score": 46000,
    "longitude": 125.67388476533579,
    "latitude": 11.179443821786363,
    "facility_name": "Suggested Area",
    "population": 1589.7935037612915,
    "count": 115
  },
  {
    "id": "c29293b1-2e89-4506-a091-d8ecaebc090e",
    "GID_2": "PHL.79.3_1",
    "municipality": "Dapitan City, Zamboanga del Norte",
    "suggested_area": true,
    "score": 46000,
    "longitude": 123.41527443413196,
    "latitude": 8.85860953416326,
    "facility_name": "Suggested Area",
    "population": 3213.6546669006348,
    "count": 115
  },
  {
    "id": "9c1f7469-d5c9-4304-a1b4-57f365a8ae04",
    "GID_2": "PHL.44.10_1",
    "municipality": "Datu Odin Sinsuat, Maguindanao",
    "suggested_area": true,
    "score": 45600,
    "longitude": 124.15221862410596,
    "latitude": 7.172219951856998,
    "facility_name": "Suggested Area",
    "population": 1326.060070991516,
    "count": 114
  },
  {
    "id": "24f46dc0-d550-455a-acdc-95d3f3a4ae47",
    "GID_2": "PHL.59.15_1",
    "municipality": "Magsaysay, Palawan",
    "suggested_area": true,
    "score": 44800,
    "longitude": 120.93888640035068,
    "latitude": 10.98722152052589,
    "facility_name": "Suggested Area",
    "population": 1560.453652381897,
    "count": 112
  },
  {
    "id": "9b55e873-d945-4951-9372-d17880312cc5",
    "GID_2": "PHL.49.14_1",
    "municipality": "Laguindingan, Misamis Oriental",
    "suggested_area": true,
    "score": 44800,
    "longitude": 124.45971851792595,
    "latitude": 8.624164993319564,
    "facility_name": "Suggested Area",
    "population": 1452.3196268081665,
    "count": 112
  },
  {
    "id": "a02baa2c-59cb-4a13-a1ad-947dd5001aa5",
    "GID_2": "PHL.79.12_1",
    "municipality": "Liloy, Zamboanga del Norte",
    "suggested_area": true,
    "score": 44800,
    "longitude": 122.66444136006501,
    "latitude": 8.160275913686654,
    "facility_name": "Suggested Area",
    "population": 1759.7137336730957,
    "count": 112
  },
  {
    "id": "3d075783-6147-4851-a797-ad31576e8eca",
    "GID_2": "PHL.71.6_1",
    "municipality": "Liloan, Southern Leyte",
    "suggested_area": true,
    "score": 44400,
    "longitude": 125.08888496733866,
    "latitude": 10.211665646073277,
    "facility_name": "Suggested Area",
    "population": 3194.522904396057,
    "count": 111
  },
  {
    "id": "92426e34-5e11-424c-a8ab-98847183de9e",
    "GID_2": "PHL.38.6_1",
    "municipality": "Tabuk City, Kalinga",
    "suggested_area": true,
    "score": 44000,
    "longitude": 121.33110848713558,
    "latitude": 17.40833527189571,
    "facility_name": "Suggested Area",
    "population": 781.9605937600136,
    "count": 110
  },
  {
    "id": "f8d78023-83a2-4a62-9d63-5dffb0129cad",
    "GID_2": "PHL.20.31_1",
    "municipality": "Presentacion, Camarines Sur",
    "suggested_area": true,
    "score": 44000,
    "longitude": 123.7102743322683,
    "latitude": 13.71277819678699,
    "facility_name": "Suggested Area",
    "population": 3881.1485023498535,
    "count": 110
  },
  {
    "id": "1ae7fa50-bff0-412d-87b5-9a8e0c57bc0d",
    "GID_2": "PHL.73.7_1",
    "municipality": "Maimbung, Sulu",
    "suggested_area": true,
    "score": 44000,
    "longitude": 121.01721970663492,
    "latitude": 5.926386106256581,
    "facility_name": "Suggested Area",
    "population": 5279.57960319519,
    "count": 110
  },
  {
    "id": "1b722579-f0d7-4033-bc53-911bba542ef6",
    "GID_2": "PHL.39.12_1",
    "municipality": "Pugo, La Union",
    "suggested_area": true,
    "score": 43600,
    "longitude": 120.47999766991755,
    "latitude": 16.347779280256326,
    "facility_name": "Suggested Area",
    "population": 843.4184594154358,
    "count": 109
  },
  {
    "id": "2a3f6f88-0a92-4a5a-8b86-76ab46f76b3e",
    "GID_2": "PHL.44.9_1",
    "municipality": "Datu Blah T. Sinsuat, Maguindanao",
    "suggested_area": true,
    "score": 43600,
    "longitude": 124.06277421054736,
    "latitude": 7.136664381681537,
    "facility_name": "Suggested Area",
    "population": 816.5101237297058,
    "count": 109
  },
  {
    "id": "b61799c2-9596-4d1e-b337-740c83b91c45",
    "GID_2": "PHL.65.17_1",
    "municipality": "Santa Maria, Romblon",
    "suggested_area": true,
    "score": 42800,
    "longitude": 122.10555266416263,
    "latitude": 12.44305545247402,
    "facility_name": "Suggested Area",
    "population": 2315.6946926116943,
    "count": 107
  },
  {
    "id": "28caa33c-750b-4c34-a99a-09841598db4c",
    "GID_2": "PHL.15.29_1",
    "municipality": "Loay, Bohol",
    "suggested_area": true,
    "score": 42400,
    "longitude": 124.03666310845261,
    "latitude": 9.597220948979128,
    "facility_name": "Suggested Area",
    "population": 1300.3937273025513,
    "count": 106
  },
  {
    "id": "1bcdee5e-3636-40c5-97fb-ae2b1aba33fd",
    "GID_2": "PHL.77.8_1",
    "municipality": "Sitangkai, Tawi-Tawi",
    "suggested_area": true,
    "score": 42400,
    "longitude": 119.40555359648279,
    "latitude": 4.876107896621204,
    "facility_name": "Suggested Area",
    "population": 3347.768449783325,
    "count": 106
  },
  {
    "id": "158003d2-5030-4d7b-ae8f-0a087cb22596",
    "GID_2": "PHL.35.27_1",
    "municipality": "Santiago, Ilocos Sur",
    "suggested_area": true,
    "score": 41600,
    "longitude": 120.42221991209088,
    "latitude": 17.275557439522146,
    "facility_name": "Suggested Area",
    "population": 1547.5371723175049,
    "count": 104
  },
  {
    "id": "8ac194b7-ff78-466d-bc0d-0ead75dae9eb",
    "GID_2": "PHL.46.11_1",
    "municipality": "Masbate City, Masbate",
    "suggested_area": true,
    "score": 41600,
    "longitude": 123.55888549565306,
    "latitude": 12.45666656918177,
    "facility_name": "Suggested Area",
    "population": 3565.1591835021973,
    "count": 104
  },
  {
    "id": "dc8de660-ca5b-4814-955b-072f33c06488",
    "GID_2": "PHL.52.11_1",
    "municipality": "Guihulngan City, Negros Oriental",
    "suggested_area": true,
    "score": 41600,
    "longitude": 123.32583002057336,
    "latitude": 10.275832339125524,
    "facility_name": "Suggested Area",
    "population": 2318.7680072784424,
    "count": 104
  },
  {
    "id": "fbb8282d-860c-4251-8d9e-8fb0341264b8",
    "GID_2": "PHL.81.1_1",
    "municipality": "Alicia, Zamboanga Sibugay",
    "suggested_area": true,
    "score": 41600,
    "longitude": 122.88888572700708,
    "latitude": 7.534997878803218,
    "facility_name": "Suggested Area",
    "population": 2134.22123336792,
    "count": 104
  },
  {
    "id": "b125df5d-4cef-48b0-a50d-bddfcf6ccd3a",
    "GID_2": "PHL.9.9_1",
    "municipality": "Tipo-Tipo, Basilan",
    "suggested_area": true,
    "score": 41600,
    "longitude": 122.20444151890443,
    "latitude": 6.54583080540684,
    "facility_name": "Suggested Area",
    "population": 1204.0109148025513,
    "count": 104
  },
  {
    "id": "f94d107b-57b8-401b-b23c-00862ec63eb9",
    "GID_2": "PHL.77.2_1",
    "municipality": "Languyan, Tawi-Tawi",
    "suggested_area": true,
    "score": 41600,
    "longitude": 120.21805331592243,
    "latitude": 5.343885866741762,
    "facility_name": "Suggested Area",
    "population": 4458.626977920532,
    "count": 104
  },
  {
    "id": "26263a38-6a92-46f4-a0be-b114445d9ccc",
    "GID_2": "PHL.5.1_1",
    "municipality": "Bacacay, Albay",
    "suggested_area": true,
    "score": 41200,
    "longitude": 123.86527427874562,
    "latitude": 13.350278047732218,
    "facility_name": "Suggested Area",
    "population": 5162.069902420044,
    "count": 103
  },
  {
    "id": "e4709609-2b0b-4a7c-903a-37af8396f64b",
    "GID_2": "PHL.52.2_1",
    "municipality": "Ayungon, Negros Oriental",
    "suggested_area": true,
    "score": 41200,
    "longitude": 123.13333008704508,
    "latitude": 9.833609935068216,
    "facility_name": "Suggested Area",
    "population": 961.3788785934449,
    "count": 103
  },
  {
    "id": "6b9c7603-a604-47ee-a80b-e0dbe3b7378b",
    "GID_2": "PHL.42.32_1",
    "municipality": "Picong, Lanao del Sur",
    "suggested_area": true,
    "score": 41200,
    "longitude": 123.81777429514773,
    "latitude": 7.699997946648717,
    "facility_name": "Suggested Area",
    "population": 1112.0284178256989,
    "count": 103
  },
  {
    "id": "c4f668f1-1265-4f4c-b25b-d94e6936f375",
    "GID_2": "PHL.77.3_1",
    "municipality": "Mapun, Tawi-Tawi",
    "suggested_area": true,
    "score": 41200,
    "longitude": 118.4152761606513,
    "latitude": 7.171664396073006,
    "facility_name": "Suggested Area",
    "population": 4712.555379390717,
    "count": 103
  },
  {
    "id": "d3144803-1af1-405c-be7c-943fe24b20c5",
    "GID_2": "PHL.31.5_1",
    "municipality": "Can-Avid, Eastern Samar",
    "suggested_area": true,
    "score": 40800,
    "longitude": 125.47305150135173,
    "latitude": 12.021110834533765,
    "facility_name": "Suggested Area",
    "population": 2313.767265319824,
    "count": 102
  },
  {
    "id": "8b847126-daab-4a8a-b976-e23aa06d41c1",
    "GID_2": "PHL.74.15_1",
    "municipality": "San Francisco, Surigao del Norte",
    "suggested_area": true,
    "score": 40800,
    "longitude": 125.39971819334096,
    "latitude": 9.757498792661613,
    "facility_name": "Suggested Area",
    "population": 2902.924437522888,
    "count": 102
  },
  {
    "id": "63764b02-89f3-4a9b-8c1f-42c8f5b97a8d",
    "GID_2": "PHL.71.5_1",
    "municipality": "Libagon, Southern Leyte",
    "suggested_area": true,
    "score": 40400,
    "longitude": 125.02888498805711,
    "latitude": 10.353332370992101,
    "facility_name": "Suggested Area",
    "population": 3178.6479568481445,
    "count": 101
  },
  {
    "id": "ea6ea799-4d6e-4c8b-a62b-50b3ea4d713b",
    "GID_2": "PHL.59.5_1",
    "municipality": "Bataraza, Palawan",
    "suggested_area": true,
    "score": 40400,
    "longitude": 117.67777641531359,
    "latitude": 8.676387237014605,
    "facility_name": "Suggested Area",
    "population": 1643.3647203445435,
    "count": 101
  },
  {
    "id": "3e7450f1-7be8-40f8-abea-0483f6c84383",
    "GID_2": "PHL.69.11_1",
    "municipality": "Matnog, Sorsogon",
    "suggested_area": true,
    "score": 40000,
    "longitude": 124.09471864396114,
    "latitude": 12.563333279709237,
    "facility_name": "Suggested Area",
    "population": 4207.971961975098,
    "count": 100
  },
  {
    "id": "087f28b6-233e-4a7a-9474-a970dc0bb40e",
    "GID_2": "PHL.6.1_1",
    "municipality": "Anini-Y, Antique",
    "suggested_area": true,
    "score": 39200,
    "longitude": 122.02944157933327,
    "latitude": 10.466943528818016,
    "facility_name": "Suggested Area",
    "population": 1402.8173274993896,
    "count": 98
  },
  {
    "id": "e5e83169-f9fe-4124-8302-7a164fe85f10",
    "GID_2": "PHL.51.12_1",
    "municipality": "Hinoba-An, Negros Occidental",
    "suggested_area": true,
    "score": 39200,
    "longitude": 122.47555253639881,
    "latitude": 9.583054276487388,
    "facility_name": "Suggested Area",
    "population": 2523.202554702759,
    "count": 98
  },
  {
    "id": "bf5e7353-92a4-4715-872d-61f78250bca7",
    "GID_2": "PHL.46.9_1",
    "municipality": "Esperanza, Masbate",
    "suggested_area": true,
    "score": 38800,
    "longitude": 124.01471867158575,
    "latitude": 11.783332958984703,
    "facility_name": "Suggested Area",
    "population": 1836.4790420532227,
    "count": 97
  },
  {
    "id": "1891b200-4cba-43ea-a410-2d969f341173",
    "GID_2": "PHL.75.12_1",
    "municipality": "Lingig, Surigao del Sur",
    "suggested_area": true,
    "score": 38800,
    "longitude": 126.45694005050046,
    "latitude": 8.232498165605328,
    "facility_name": "Suggested Area",
    "population": 3169.0979747772217,
    "count": 97
  },
  {
    "id": "b7a6c0d2-df95-4084-a761-74285581e003",
    "GID_2": "PHL.29.6_1",
    "municipality": "Governor Generoso, Davao Oriental",
    "suggested_area": true,
    "score": 38800,
    "longitude": 126.08055129157944,
    "latitude": 6.672219746264925,
    "facility_name": "Suggested Area",
    "population": 2801.7970123291016,
    "count": 97
  },
  {
    "id": "53c7ca11-ba85-4571-a63a-e24046ee0f16",
    "GID_2": "PHL.66.25_1",
    "municipality": "Villareal, Samar",
    "suggested_area": true,
    "score": 38400,
    "longitude": 124.91749613763166,
    "latitude": 11.59611065978014,
    "facility_name": "Suggested Area",
    "population": 2259.2080249786377,
    "count": 96
  },
  {
    "id": "540f6883-7d2c-4c93-a8c7-5fc9fcd4748d",
    "GID_2": "PHL.15.33_1",
    "municipality": "Maribojoc, Bohol",
    "suggested_area": true,
    "score": 38400,
    "longitude": 123.82805206937651,
    "latitude": 9.741109897033914,
    "facility_name": "Suggested Area",
    "population": 2053.172842979431,
    "count": 96
  },
  {
    "id": "e8e57d9b-c7d9-4f86-a9b4-0856c1c078b5",
    "GID_2": "PHL.38.7_1",
    "municipality": "Tanudan, Kalinga",
    "suggested_area": true,
    "score": 38000,
    "longitude": 121.34333070513738,
    "latitude": 17.365557476528494,
    "facility_name": "Suggested Area",
    "population": 1208.153720855713,
    "count": 95
  },
  {
    "id": "88c751ab-7628-48f4-91f1-4dd6187444f7",
    "GID_2": "PHL.65.14_1",
    "municipality": "San Fernando, Romblon",
    "suggested_area": true,
    "score": 38000,
    "longitude": 122.42555255366419,
    "latitude": 12.44527767560998,
    "facility_name": "Suggested Area",
    "population": 4613.564208984375,
    "count": 95
  },
  {
    "id": "0223451b-df36-4537-a6f5-9f394da3f710",
    "GID_2": "PHL.43.39_1",
    "municipality": "Tacloban City, Leyte",
    "suggested_area": true,
    "score": 38000,
    "longitude": 124.96638500963884,
    "latitude": 11.334999441303507,
    "facility_name": "Suggested Area",
    "population": 2407.445240497589,
    "count": 95
  },
  {
    "id": "56cc3075-8aa5-4807-bb82-fac3c614ce67",
    "GID_2": "PHL.80.18_1",
    "municipality": "Pagadian City, Zamboanga del Sur",
    "suggested_area": true,
    "score": 37600,
    "longitude": 123.42610776372446,
    "latitude": 7.804442434039134,
    "facility_name": "Suggested Area",
    "population": 2791.2824668884277,
    "count": 94
  },
  {
    "id": "2a0b0615-9e7c-452e-aaea-4101193b8dcd",
    "GID_2": "PHL.59.12_1",
    "municipality": "Dumaran, Palawan",
    "suggested_area": true,
    "score": 37200,
    "longitude": 119.7177757108923,
    "latitude": 10.562499123664262,
    "facility_name": "Suggested Area",
    "population": 1496.2712907791138,
    "count": 93
  },
  {
    "id": "b1082de8-3701-4298-98b1-f11d7ea45d07",
    "GID_2": "PHL.32.3_1",
    "municipality": "Nueva Valencia, Guimaras",
    "suggested_area": true,
    "score": 37200,
    "longitude": 122.4999969724024,
    "latitude": 10.509999102077225,
    "facility_name": "Suggested Area",
    "population": 2501.5785236358643,
    "count": 93
  },
  {
    "id": "32e6e7f5-3964-43d9-ad62-0c323bab9b96",
    "GID_2": "PHL.22.13_1",
    "municipality": "President Roxas, Capiz",
    "suggested_area": true,
    "score": 36800,
    "longitude": 122.91694127287484,
    "latitude": 11.48055505671026,
    "facility_name": "Suggested Area",
    "population": 1502.688229560852,
    "count": 92
  },
  {
    "id": "5291d165-5cb3-4e71-86a9-ab058dd914ea",
    "GID_2": "PHL.51.20_1",
    "municipality": "Murcia, Negros Occidental",
    "suggested_area": true,
    "score": 36800,
    "longitude": 123.03333012157375,
    "latitude": 10.637499154502885,
    "facility_name": "Suggested Area",
    "population": 1802.4281330108643,
    "count": 92
  },
  {
    "id": "8215df06-cf2a-4238-b80c-882f06ed7703",
    "GID_2": "PHL.51.23_1",
    "municipality": "Sagay City, Negros Occidental",
    "suggested_area": true,
    "score": 36400,
    "longitude": 123.54221883474152,
    "latitude": 10.978888183766044,
    "facility_name": "Suggested Area",
    "population": 1503.6160154342651,
    "count": 91
  },
  {
    "id": "68d1f384-f404-41e8-9d90-a800e44991ff",
    "GID_2": "PHL.49.18_1",
    "municipality": "Manticao, Misamis Oriental",
    "suggested_area": true,
    "score": 36400,
    "longitude": 124.27749635862645,
    "latitude": 8.387498229338483,
    "facility_name": "Suggested Area",
    "population": 2300.453332901001,
    "count": 91
  },
  {
    "id": "89837f39-a35e-4203-b684-7d6af834369c",
    "GID_2": "PHL.28.15_1",
    "municipality": "Sarangani, Davao del Sur",
    "suggested_area": true,
    "score": 36400,
    "longitude": 125.4827737202168,
    "latitude": 5.493052594743501,
    "facility_name": "Suggested Area",
    "population": 5573.203205108643,
    "count": 91
  },
  {
    "id": "74068f0c-0f2f-45d2-b9b7-2665dbc07a8d",
    "GID_2": "PHL.20.4_1",
    "municipality": "Bato, Camarines Sur",
    "suggested_area": true,
    "score": 35600,
    "longitude": 123.25777448851791,
    "latitude": 13.275278016893594,
    "facility_name": "Suggested Area",
    "population": 2402.500114440918,
    "count": 89
  },
  {
    "id": "40d40c99-8e62-413f-a729-38894773401e",
    "GID_2": "PHL.59.7_1",
    "municipality": "Busuanga, Palawan",
    "suggested_area": true,
    "score": 35600,
    "longitude": 119.90388675773991,
    "latitude": 12.362222085903504,
    "facility_name": "Suggested Area",
    "population": 2562.9794788360596,
    "count": 89
  },
  {
    "id": "9fb36ad0-d089-4532-8469-705190757ca1",
    "GID_2": "PHL.78.9_1",
    "municipality": "San Antonio, Zambales",
    "suggested_area": true,
    "score": 35200,
    "longitude": 120.14972000618512,
    "latitude": 14.958334264494978,
    "facility_name": "Suggested Area",
    "population": 1270.8195886611938,
    "count": 88
  },
  {
    "id": "1bc5a5dc-672e-4f1b-adb9-1a446dc7580b",
    "GID_2": "PHL.12.8_1",
    "municipality": "Calatagan, Batangas",
    "suggested_area": true,
    "score": 35200,
    "longitude": 120.6191642885289,
    "latitude": 13.888611602419763,
    "facility_name": "Suggested Area",
    "population": 909.772264957428,
    "count": 88
  },
  {
    "id": "2b27c88b-9711-46e8-9086-de1fd1c667cc",
    "GID_2": "PHL.65.4_1",
    "municipality": "Calatrava, Romblon",
    "suggested_area": true,
    "score": 35200,
    "longitude": 122.11333043925468,
    "latitude": 12.673333324939218,
    "facility_name": "Suggested Area",
    "population": 3384.9176750183105,
    "count": 88
  },
  {
    "id": "2a6abeba-d221-4434-9467-d111e43d8196",
    "GID_2": "PHL.43.29_1",
    "municipality": "Merida, Leyte",
    "suggested_area": true,
    "score": 35200,
    "longitude": 124.54582959930224,
    "latitude": 10.968332623870237,
    "facility_name": "Suggested Area",
    "population": 1092.6327629089355,
    "count": 88
  },
  {
    "id": "57e3dfb7-7310-43b1-8a4e-f6c578591d66",
    "GID_2": "PHL.59.21_1",
    "municipality": "San Vicente, Palawan",
    "suggested_area": true,
    "score": 35200,
    "longitude": 119.16610923471825,
    "latitude": 10.462221304654102,
    "facility_name": "Suggested Area",
    "population": 1957.6235456466675,
    "count": 88
  },
  {
    "id": "618ec8f5-0fb0-4cd2-a8d8-b4b654fa6e5a",
    "GID_2": "PHL.30.7_1",
    "municipality": "Tubajon, Dinagat Islands",
    "suggested_area": true,
    "score": 34800,
    "longitude": 125.55305147372712,
    "latitude": 10.348610146828188,
    "facility_name": "Suggested Area",
    "population": 1311.0359258651733,
    "count": 87
  },
  {
    "id": "f88404c1-a53e-4ca5-a601-abea75a493fd",
    "GID_2": "PHL.71.12_1",
    "municipality": "Pintuyan, Southern Leyte",
    "suggested_area": true,
    "score": 34800,
    "longitude": 125.20194048385527,
    "latitude": 10.008887784916999,
    "facility_name": "Suggested Area",
    "population": 2413.1865644454956,
    "count": 87
  },
  {
    "id": "2e52b8b7-3121-46ac-ab89-a7fea11052f9",
    "GID_2": "PHL.46.15_1",
    "municipality": "Palanas, Masbate",
    "suggested_area": true,
    "score": 34400,
    "longitude": 123.90694093102447,
    "latitude": 12.181388678214823,
    "facility_name": "Suggested Area",
    "population": 1781.1076908111572,
    "count": 86
  },
  {
    "id": "9de6c570-ce67-4d79-8541-46f3288ec0bf",
    "GID_2": "PHL.6.8_1",
    "municipality": "Laua-An, Antique",
    "suggested_area": true,
    "score": 34400,
    "longitude": 122.04083046428948,
    "latitude": 11.129721579119275,
    "facility_name": "Suggested Area",
    "population": 1694.9331016540525,
    "count": 86
  },
  {
    "id": "96623be0-3843-4e2e-b7e5-e5cf3fe9bb27",
    "GID_2": "PHL.48.9_1",
    "municipality": "Lopez Jaena, Misamis Occidental",
    "suggested_area": true,
    "score": 34400,
    "longitude": 123.7752743098233,
    "latitude": 8.542220515179643,
    "facility_name": "Suggested Area",
    "population": 2049.317735671997,
    "count": 86
  },
  {
    "id": "c402f13f-84ec-4b62-90e8-b18fc52ed838",
    "GID_2": "PHL.80.28_1",
    "municipality": "Vincenzo A. Sagun, Zamboanga del Sur",
    "suggested_area": true,
    "score": 34400,
    "longitude": 123.22888560960457,
    "latitude": 7.538331213507168,
    "facility_name": "Suggested Area",
    "population": 2099.315231323242,
    "count": 86
  },
  {
    "id": "5424d3b2-8d9a-4bf4-b94f-d2a9f3134e4f",
    "GID_2": "PHL.69.3_1",
    "municipality": "Bulusan, Sorsogon",
    "suggested_area": true,
    "score": 34000,
    "longitude": 124.15277417946967,
    "latitude": 12.8105556035847,
    "facility_name": "Suggested Area",
    "population": 2217.810661315918,
    "count": 85
  },
  {
    "id": "f1a1aa93-7fc3-4fd1-aef2-af024f1d0ae1",
    "GID_2": "PHL.36.12_1",
    "municipality": "Calinog, Iloilo",
    "suggested_area": true,
    "score": 34000,
    "longitude": 122.40805255970707,
    "latitude": 11.193332716386108,
    "facility_name": "Suggested Area",
    "population": 2565.4647340774536,
    "count": 85
  },
  {
    "id": "b4e32452-dac4-4ed1-87f5-551389b52b10",
    "GID_2": "PHL.75.4_1",
    "municipality": "Cagwait, Surigao del Sur",
    "suggested_area": true,
    "score": 34000,
    "longitude": 126.32166231943305,
    "latitude": 8.909442888398328,
    "facility_name": "Suggested Area",
    "population": 2724.968665122986,
    "count": 85
  },
  {
    "id": "ad78f866-7580-4858-8a4f-b2b105c5edaa",
    "GID_2": "PHL.62.5_1",
    "municipality": "Burdeos, Quezon",
    "suggested_area": true,
    "score": 33600,
    "longitude": 121.94471938636418,
    "latitude": 15.055000970909203,
    "facility_name": "Suggested Area",
    "population": 3617.1664962768555,
    "count": 84
  },
  {
    "id": "ad98c8d5-7734-4f76-8d94-bd0cccb613e0",
    "GID_2": "PHL.46.14_1",
    "municipality": "Monreal, Masbate",
    "suggested_area": true,
    "score": 33600,
    "longitude": 123.60388548011422,
    "latitude": 12.643055534711774,
    "facility_name": "Suggested Area",
    "population": 2844.16157913208,
    "count": 84
  },
  {
    "id": "f6dbdbca-6282-4223-9787-16e563cf6487",
    "GID_2": "PHL.62.15_1",
    "municipality": "Infanta, Quezon",
    "suggested_area": true,
    "score": 33200,
    "longitude": 121.65638615259455,
    "latitude": 14.774167522102358,
    "facility_name": "Suggested Area",
    "population": 2626.624198913574,
    "count": 83
  },
  {
    "id": "5f94df6b-25dc-436b-a259-8c1a8abdaeaf",
    "GID_2": "PHL.69.12_1",
    "municipality": "Pilar, Sorsogon",
    "suggested_area": true,
    "score": 33200,
    "longitude": 123.69082989453817,
    "latitude": 12.957222330558007,
    "facility_name": "Suggested Area",
    "population": 2399.005962371826,
    "count": 83
  },
  {
    "id": "024ca587-e54c-45b3-bb05-39d7fa82e56a",
    "GID_2": "PHL.14.2_1",
    "municipality": "Biliran, Biliran",
    "suggested_area": true,
    "score": 33200,
    "longitude": 124.43332963814935,
    "latitude": 11.505277289097807,
    "facility_name": "Suggested Area",
    "population": 1530.6402459144592,
    "count": 83
  },
  {
    "id": "da5a9efe-a9f3-40e3-aa6b-2b3bdd522b37",
    "GID_2": "PHL.15.11_1",
    "municipality": "Calape, Bohol",
    "suggested_area": true,
    "score": 33200,
    "longitude": 123.85694094828985,
    "latitude": 9.941943312946227,
    "facility_name": "Suggested Area",
    "population": 814.5702090263367,
    "count": 83
  },
  {
    "id": "7743a82e-63ee-4383-9967-a4cfd9129ad0",
    "GID_2": "PHL.59.8_1",
    "municipality": "Cagayancillo, Palawan",
    "suggested_area": true,
    "score": 33200,
    "longitude": 121.23471963153051,
    "latitude": 9.655832084190052,
    "facility_name": "Suggested Area",
    "population": 3895.1954822540283,
    "count": 83
  },
  {
    "id": "3671c101-3547-4f8a-a2c2-108883e7141c",
    "GID_2": "PHL.62.27_1",
    "municipality": "Perez, Quezon",
    "suggested_area": true,
    "score": 32800,
    "longitude": 121.91916383963316,
    "latitude": 14.20833395610732,
    "facility_name": "Suggested Area",
    "population": 2211.606768131256,
    "count": 82
  },
  {
    "id": "eef4ead7-c0fc-4cc4-aa3d-8497d62ff75e",
    "GID_2": "PHL.62.26_1",
    "municipality": "Patnanungan, Quezon",
    "suggested_area": true,
    "score": 32400,
    "longitude": 122.21249707167834,
    "latitude": 14.839723104613155,
    "facility_name": "Suggested Area",
    "population": 3505.021614074707,
    "count": 81
  },
  {
    "id": "2ecce1ba-65af-4703-bc45-66221b4dae09",
    "GID_2": "PHL.61.1_1",
    "municipality": "Agno, Pangasinan",
    "suggested_area": true,
    "score": 32000,
    "longitude": 119.77194235885689,
    "latitude": 16.145279196992043,
    "facility_name": "Suggested Area",
    "population": 1028.3544540405273,
    "count": 80
  },
  {
    "id": "3a39cf57-134e-4053-88c0-743143747441",
    "GID_2": "PHL.78.13_1",
    "municipality": "Santa Cruz, Zambales",
    "suggested_area": true,
    "score": 32000,
    "longitude": 119.89416453887485,
    "latitude": 15.804723501406293,
    "facility_name": "Suggested Area",
    "population": 934.8846311569214,
    "count": 80
  },
  {
    "id": "e342d419-6e3e-4a7f-ab79-a91a41741b09",
    "GID_2": "PHL.62.6_1",
    "municipality": "Calauag, Quezon",
    "suggested_area": true,
    "score": 32000,
    "longitude": 122.2669414973227,
    "latitude": 14.244722859958651,
    "facility_name": "Suggested Area",
    "population": 2199.719772338867,
    "count": 80
  },
  {
    "id": "e73cc30a-d8ad-44c2-a557-5750dc884dce",
    "GID_2": "PHL.58.11_1",
    "municipality": "Pola, Oriental Mindoro",
    "suggested_area": true,
    "score": 32000,
    "longitude": 121.44110844915383,
    "latitude": 13.17250019685548,
    "facility_name": "Suggested Area",
    "population": 1620.4536247253418,
    "count": 80
  },
  {
    "id": "64b9b92b-8d5d-44f5-bc0d-01341c6137ee",
    "GID_2": "PHL.62.12_1",
    "municipality": "Guinayangan, Quezon",
    "suggested_area": true,
    "score": 31600,
    "longitude": 122.46916364971605,
    "latitude": 13.875000485712013,
    "facility_name": "Suggested Area",
    "population": 938.0757727622986,
    "count": 79
  },
  {
    "id": "532b6db8-538d-4988-9b6c-128d51665a2c",
    "GID_2": "PHL.51.8_1",
    "municipality": "Enrique B. Magalona, Negros Occidental",
    "suggested_area": true,
    "score": 31600,
    "longitude": 123.00666346411529,
    "latitude": 10.915277046499211,
    "facility_name": "Suggested Area",
    "population": 2214.972801208496,
    "count": 79
  },
  {
    "id": "b14fbffa-c4af-49fa-ae7c-5b02eb233032",
    "GID_2": "PHL.74.5_1",
    "municipality": "Dapa, Surigao del Norte",
    "suggested_area": true,
    "score": 31600,
    "longitude": 126.00999576038726,
    "latitude": 9.76416546206949,
    "facility_name": "Suggested Area",
    "population": 2820.7349586486816,
    "count": 79
  },
  {
    "id": "27fba486-9731-4a21-bcb6-ee284395845a",
    "GID_2": "PHL.25.12_1",
    "municipality": "Boljoon, Cebu",
    "suggested_area": true,
    "score": 31600,
    "longitude": 123.49055218591575,
    "latitude": 9.650276526350154,
    "facility_name": "Suggested Area",
    "population": 872.8018608093262,
    "count": 79
  },
  {
    "id": "15ee7bd8-74d6-46a8-b837-b12e0893f4a5",
    "GID_2": "PHL.20.13_1",
    "municipality": "Caramoan, Camarines Sur",
    "suggested_area": true,
    "score": 31200,
    "longitude": 123.8186076281933,
    "latitude": 13.958889409094473,
    "facility_name": "Suggested Area",
    "population": 4368.488540649414,
    "count": 78
  },
  {
    "id": "4b8f5d54-8a77-471a-8c0d-5a6dd6f91a58",
    "GID_2": "PHL.15.46_1",
    "municipality": "Tubigon, Bohol",
    "suggested_area": true,
    "score": 30800,
    "longitude": 123.92832981252761,
    "latitude": 10.071387810615851,
    "facility_name": "Suggested Area",
    "population": 2281.445276260376,
    "count": 77
  },
  {
    "id": "6284ffa9-42d1-4d4c-9152-8b73bfb1d67e",
    "GID_2": "PHL.45.6_1",
    "municipality": "Torrijos, Marinduque",
    "suggested_area": true,
    "score": 30400,
    "longitude": 122.14694153875962,
    "latitude": 13.39916695672332,
    "facility_name": "Suggested Area",
    "population": 1438.4794063568115,
    "count": 76
  },
  {
    "id": "4d70be73-6601-405d-9fe2-c7919a99706a",
    "GID_2": "PHL.66.26_1",
    "municipality": "Zumarraga, Samar",
    "suggested_area": true,
    "score": 30400,
    "longitude": 124.85749615835012,
    "latitude": 11.69249958830237,
    "facility_name": "Suggested Area",
    "population": 2629.593376159668,
    "count": 76
  },
  {
    "id": "0207d197-c27d-4a19-9139-3787dcb5d5ad",
    "GID_2": "PHL.25.49_1",
    "municipality": "Tabogon, Cebu",
    "suggested_area": true,
    "score": 30400,
    "longitude": 124.03860755222563,
    "latitude": 10.955832618730467,
    "facility_name": "Suggested Area",
    "population": 764.9331073760986,
    "count": 76
  },
  {
    "id": "bc7d7dad-960a-4ecc-b5ea-5632c25cbba3",
    "GID_2": "PHL.61.3_1",
    "municipality": "Alaminos City, Pangasinan",
    "suggested_area": true,
    "score": 30000,
    "longitude": 119.94277563320017,
    "latitude": 16.23861256870233,
    "facility_name": "Suggested Area",
    "population": 890.5150356292725,
    "count": 75
  },
  {
    "id": "0124fe00-637b-4bd1-bce6-6d514993643b",
    "GID_2": "PHL.14.5_1",
    "municipality": "Culaba, Biliran",
    "suggested_area": true,
    "score": 30000,
    "longitude": 124.49582961656762,
    "latitude": 11.689166253598431,
    "facility_name": "Suggested Area",
    "population": 944.6859359741211,
    "count": 75
  },
  {
    "id": "97237772-5d32-43e8-8109-ee924c393654",
    "GID_2": "PHL.79.1_1",
    "municipality": "Bacungan, Zamboanga del Norte",
    "suggested_area": true,
    "score": 30000,
    "longitude": 122.86055240345746,
    "latitude": 8.146387019086909,
    "facility_name": "Suggested Area",
    "population": 2753.014789581299,
    "count": 75
  },
  {
    "id": "99eeb068-f439-4aca-802b-678ab3b71bc0",
    "GID_2": "PHL.2.1_1",
    "municipality": "Buenavista, Agusan del Norte",
    "suggested_area": true,
    "score": 29600,
    "longitude": 125.44694039925699,
    "latitude": 8.8891651022827,
    "facility_name": "Suggested Area",
    "population": 1314.8491687774658,
    "count": 74
  },
  {
    "id": "df37bf39-3ab3-4505-84d2-527d31306835",
    "GID_2": "PHL.25.53_1",
    "municipality": "Tuburan, Cebu",
    "suggested_area": true,
    "score": 29200,
    "longitude": 123.85527428219869,
    "latitude": 10.799165887643918,
    "facility_name": "Suggested Area",
    "population": 2984.79421043396,
    "count": 73
  },
  {
    "id": "62297df3-c10c-4a67-aaee-f691c573450a",
    "GID_2": "PHL.71.15_1",
    "municipality": "San Juan, Southern Leyte",
    "suggested_area": true,
    "score": 29200,
    "longitude": 125.23971824858809,
    "latitude": 10.253887885657926,
    "facility_name": "Suggested Area",
    "population": 1634.8091850280762,
    "count": 73
  },
  {
    "id": "5018c361-4106-4d6e-93c9-1a5212772948",
    "GID_2": "PHL.65.8_1",
    "municipality": "Looc, Romblon",
    "suggested_area": true,
    "score": 28800,
    "longitude": 121.94833049622835,
    "latitude": 12.290833167660814,
    "facility_name": "Suggested Area",
    "population": 1560.2654724121094,
    "count": 72
  },
  {
    "id": "8988c0e6-4ba6-43bf-a48d-ebc93cc102fe",
    "GID_2": "PHL.52.24_1",
    "municipality": "Vallehermoso, Negros Oriental",
    "suggested_area": true,
    "score": 28800,
    "longitude": 123.32805224202824,
    "latitude": 10.312221242976856,
    "facility_name": "Suggested Area",
    "population": 2094.1785621643066,
    "count": 72
  },
  {
    "id": "fbd7b8d8-f773-429e-a236-7fe57afd31d7",
    "GID_2": "PHL.30.2_1",
    "municipality": "Cagdianao, Dinagat Islands",
    "suggested_area": true,
    "score": 28800,
    "longitude": 125.64860699628662,
    "latitude": 10.183610078981792,
    "facility_name": "Suggested Area",
    "population": 1329.865484714508,
    "count": 72
  },
  {
    "id": "11faf373-609f-4bd5-95f4-ee2f049fd64c",
    "GID_2": "PHL.48.2_1",
    "municipality": "Baliangao, Misamis Occidental",
    "suggested_area": true,
    "score": 28800,
    "longitude": 123.60388548011422,
    "latitude": 8.669165011822738,
    "facility_name": "Suggested Area",
    "population": 1703.5659589767456,
    "count": 72
  },
  {
    "id": "7436d054-7422-4c08-88d1-b74123effd02",
    "GID_2": "PHL.6.16_1",
    "municipality": "Tibiao, Antique",
    "suggested_area": true,
    "score": 28400,
    "longitude": 122.04860823938154,
    "latitude": 11.330554995031589,
    "facility_name": "Suggested Area",
    "population": 1231.4221172332764,
    "count": 71
  },
  {
    "id": "78a33e08-5197-4df2-93b7-7abe1475671e",
    "GID_2": "PHL.66.24_1",
    "municipality": "Tarangnan, Samar",
    "suggested_area": true,
    "score": 28000,
    "longitude": 124.6341629021334,
    "latitude": 11.914999679791713,
    "facility_name": "Suggested Area",
    "population": 2680.931318283081,
    "count": 70
  },
  {
    "id": "4a17477c-8c7f-4726-9457-a6d611794f42",
    "GID_2": "PHL.75.14_1",
    "municipality": "Marihatag, Surigao del Sur",
    "suggested_area": true,
    "score": 28000,
    "longitude": 126.33249564902555,
    "latitude": 8.84666508480748,
    "facility_name": "Suggested Area",
    "population": 1467.7418851852417,
    "count": 70
  },
  {
    "id": "5f22cdcf-73a3-4a2f-b706-d0f4d926d2d4",
    "GID_2": "PHL.41.11_1",
    "municipality": "Maigo, Lanao del Norte",
    "suggested_area": true,
    "score": 28000,
    "longitude": 123.94888536098517,
    "latitude": 8.160831469470644,
    "facility_name": "Suggested Area",
    "population": 2305.063732147217,
    "count": 70
  },
  {
    "id": "bee1717e-5e7e-4ee4-b767-014aac83c39f",
    "GID_2": "PHL.80.25_1",
    "municipality": "Tambulig, Zamboanga del Sur",
    "suggested_area": true,
    "score": 28000,
    "longitude": 123.61249658825184,
    "latitude": 7.994164734272259,
    "facility_name": "Suggested Area",
    "population": 927.977367401123,
    "count": 70
  },
  {
    "id": "f0e0bab1-4f12-4fc0-bb4f-cef47f35db95",
    "GID_2": "PHL.69.1_1",
    "municipality": "Barcelona, Sorsogon",
    "suggested_area": true,
    "score": 27200,
    "longitude": 124.15305195715153,
    "latitude": 12.830277833916337,
    "facility_name": "Suggested Area",
    "population": 2284.4069538116455,
    "count": 68
  },
  {
    "id": "2e45b92b-6195-4f7b-abac-ba38aaa8c0c4",
    "GID_2": "PHL.46.5_1",
    "municipality": "Cataingan, Masbate",
    "suggested_area": true,
    "score": 27200,
    "longitude": 123.96666313262415,
    "latitude": 12.094166420128424,
    "facility_name": "Suggested Area",
    "population": 1503.4771003723145,
    "count": 68
  },
  {
    "id": "fde121f2-c8d7-4105-a156-5aff51d07c0a",
    "GID_2": "PHL.52.18_1",
    "municipality": "Santa Catalina, Negros Oriental",
    "suggested_area": true,
    "score": 27200,
    "longitude": 122.8738857321867,
    "latitude": 9.257776364961359,
    "facility_name": "Suggested Area",
    "population": 929.1463627815247,
    "count": 68
  },
  {
    "id": "df02a6d3-452c-4661-b0c4-e95fafbc59bb",
    "GID_2": "PHL.59.10_1",
    "municipality": "Culion, Palawan",
    "suggested_area": true,
    "score": 26800,
    "longitude": 119.86860899214382,
    "latitude": 12.297499837068692,
    "facility_name": "Suggested Area",
    "population": 3016.012173652649,
    "count": 67
  },
  {
    "id": "7460e9e0-ce77-4688-91eb-e3190e1edc07",
    "GID_2": "PHL.31.6_1",
    "municipality": "Dolores, Eastern Samar",
    "suggested_area": true,
    "score": 26800,
    "longitude": 125.49249593908186,
    "latitude": 12.083888638124613,
    "facility_name": "Suggested Area",
    "population": 1787.8992233276367,
    "count": 67
  },
  {
    "id": "ea5a5b6a-b843-464e-ae6f-4cef26a6a61c",
    "GID_2": "PHL.36.1_1",
    "municipality": "Ajuy, Iloilo",
    "suggested_area": true,
    "score": 26800,
    "longitude": 123.04749678334856,
    "latitude": 11.134721581175183,
    "facility_name": "Suggested Area",
    "population": 1362.7778987884521,
    "count": 67
  },
  {
    "id": "1237b401-5e32-4cb8-bec1-8c9eda2360ff",
    "GID_2": "PHL.36.37_1",
    "municipality": "San Joaquin, Iloilo",
    "suggested_area": true,
    "score": 26800,
    "longitude": 122.0766637852493,
    "latitude": 10.537776891276716,
    "facility_name": "Suggested Area",
    "population": 965.0785207748413,
    "count": 67
  },
  {
    "id": "7e9a6cf0-19a9-4478-b027-8dd77d9c47fd",
    "GID_2": "PHL.22.15_1",
    "municipality": "Sapi-An, Capiz",
    "suggested_area": true,
    "score": 26000,
    "longitude": 122.5791636117343,
    "latitude": 11.551666197060955,
    "facility_name": "Suggested Area",
    "population": 998.7291145324707,
    "count": 65
  },
  {
    "id": "8acb96cf-f2d6-43e4-a3cc-533152be6b38",
    "GID_2": "PHL.25.16_1",
    "municipality": "Catmon, Cebu",
    "suggested_area": true,
    "score": 25600,
    "longitude": 124.01832978144992,
    "latitude": 10.674443614138207,
    "facility_name": "Suggested Area",
    "population": 818.3333377838135,
    "count": 64
  },
  {
    "id": "7afdf595-22ce-4fb7-9dc2-5b1f7517f0c0",
    "GID_2": "PHL.49.1_1",
    "municipality": "Alubijid, Misamis Oriental",
    "suggested_area": true,
    "score": 25600,
    "longitude": 124.47388517970076,
    "latitude": 8.589998312604191,
    "facility_name": "Suggested Area",
    "population": 1440.9200706481934,
    "count": 64
  },
  {
    "id": "7ed503e3-f4be-4266-b62e-c40f817291b5",
    "GID_2": "PHL.15.27_1",
    "municipality": "Jetafe, Bohol",
    "suggested_area": true,
    "score": 25200,
    "longitude": 124.1349964078307,
    "latitude": 10.180276744277853,
    "facility_name": "Suggested Area",
    "population": 2036.940465927124,
    "count": 63
  },
  {
    "id": "b909d0bc-ba38-460a-975c-1a752e5129bf",
    "GID_2": "PHL.30.4_1",
    "municipality": "Libjo, Dinagat Islands",
    "suggested_area": true,
    "score": 25200,
    "longitude": 125.513884820585,
    "latitude": 10.240832324732741,
    "facility_name": "Suggested Area",
    "population": 1025.413341999054,
    "count": 63
  },
  {
    "id": "2a790cfc-4d32-4f1d-90a9-506ec74f2fa9",
    "GID_2": "PHL.74.13_1",
    "municipality": "Placer, Surigao del Norte",
    "suggested_area": true,
    "score": 25200,
    "longitude": 125.6541625499238,
    "latitude": 9.704998771074576,
    "facility_name": "Suggested Area",
    "population": 905.8308296203613,
    "count": 63
  },
  {
    "id": "62fce889-4187-46ac-ac9e-ea5074811cd2",
    "GID_2": "PHL.36.9_1",
    "municipality": "Batad, Iloilo",
    "suggested_area": true,
    "score": 24400,
    "longitude": 123.13721897459111,
    "latitude": 11.41083280581954,
    "facility_name": "Suggested Area",
    "population": 1955.863031387329,
    "count": 61
  },
  {
    "id": "c0549d56-ad9e-4c6b-9dc4-3c8fd47da0da",
    "GID_2": "PHL.15.3_1",
    "municipality": "Anda, Bohol",
    "suggested_area": true,
    "score": 24400,
    "longitude": 124.59277402753641,
    "latitude": 9.771943243045348,
    "facility_name": "Suggested Area",
    "population": 884.6275777816772,
    "count": 61
  },
  {
    "id": "960c508f-9ce6-4c9c-b3eb-3c00e69898a6",
    "GID_2": "PHL.73.4_1",
    "municipality": "Kalingalan Caluang, Sulu",
    "suggested_area": true,
    "score": 24400,
    "longitude": 121.23555296457609,
    "latitude": 5.907774987492863,
    "facility_name": "Suggested Area",
    "population": 2001.760633468628,
    "count": 61
  },
  {
    "id": "b40849b1-4821-4bec-875f-ddad2c2b44c9",
    "GID_2": "PHL.30.5_1",
    "municipality": "Loreto, Dinagat Islands",
    "suggested_area": true,
    "score": 24000,
    "longitude": 125.4949959382186,
    "latitude": 10.450832411082311,
    "facility_name": "Suggested Area",
    "population": 967.2223796844482,
    "count": 60
  },
  {
    "id": "07b106a7-b9a7-463e-822d-f2f699fc5bbf",
    "GID_2": "PHL.81.9_1",
    "municipality": "Naga, Zamboanga Sibugay",
    "suggested_area": true,
    "score": 24000,
    "longitude": 122.70388579088899,
    "latitude": 7.785553537383421,
    "facility_name": "Suggested Area",
    "population": 2072.4167804718018,
    "count": 60
  },
  {
    "id": "bbaf4edb-cd32-4d88-b7b0-cc86ba7597e1",
    "GID_2": "PHL.12.16_1",
    "municipality": "Mabini, Batangas",
    "suggested_area": true,
    "score": 23600,
    "longitude": 120.91666418580196,
    "latitude": 13.704722637919138,
    "facility_name": "Suggested Area",
    "population": 317.08291244506836,
    "count": 59
  },
  {
    "id": "075b760a-ee5b-4b89-b17c-da73c6822c88",
    "GID_2": "PHL.43.43_1",
    "municipality": "Villaba, Leyte",
    "suggested_area": true,
    "score": 23600,
    "longitude": 124.39944076096255,
    "latitude": 11.236666067537312,
    "facility_name": "Suggested Area",
    "population": 407.76683807373047,
    "count": 59
  },
  {
    "id": "76e5e5c2-b1ba-4ed7-b5d4-efe01b003f6c",
    "GID_2": "PHL.25.7_1",
    "municipality": "Badian, Cebu",
    "suggested_area": true,
    "score": 23600,
    "longitude": 123.38027444621773,
    "latitude": 9.892498848171135,
    "facility_name": "Suggested Area",
    "population": 615.8423118591309,
    "count": 59
  },
  {
    "id": "f4db36a6-10fd-4764-a357-631100aef322",
    "GID_2": "PHL.71.16_1",
    "municipality": "San Ricardo, Southern Leyte",
    "suggested_area": true,
    "score": 23200,
    "longitude": 125.23888491554251,
    "latitude": 10.064721141207974,
    "facility_name": "Suggested Area",
    "population": 2197.6021270751953,
    "count": 58
  },
  {
    "id": "675edd40-b34e-40da-a589-6cd143502413",
    "GID_2": "PHL.79.18_1",
    "municipality": "Rizal, Zamboanga del Norte",
    "suggested_area": true,
    "score": 22800,
    "longitude": 123.53499661501318,
    "latitude": 8.631387218511431,
    "facility_name": "Suggested Area",
    "population": 1180.6737880706787,
    "count": 57
  },
  {
    "id": "f7483f61-be9a-4935-ac86-5563ccd526a4",
    "GID_2": "PHL.78.3_1",
    "municipality": "Candelaria, Zambales",
    "suggested_area": true,
    "score": 22400,
    "longitude": 119.92305341778818,
    "latitude": 15.678890116331178,
    "facility_name": "Suggested Area",
    "population": 947.8975687026978,
    "count": 56
  },
  {
    "id": "ad49d2f5-8d09-4a3d-9af8-fe797a286234",
    "GID_2": "PHL.51.30_1",
    "municipality": "Toboso, Negros Occidental",
    "suggested_area": true,
    "score": 22400,
    "longitude": 123.5308299497853,
    "latitude": 10.757221425952688,
    "facility_name": "Suggested Area",
    "population": 2146.5087280273438,
    "count": 56
  },
  {
    "id": "0c82551f-55b0-4c20-af1a-118272fdffb7",
    "GID_2": "PHL.4.11_1",
    "municipality": "Makato, Aklan",
    "suggested_area": true,
    "score": 22000,
    "longitude": 122.28721926809841,
    "latitude": 11.752777390865264,
    "facility_name": "Suggested Area",
    "population": 1322.6649742126465,
    "count": 55
  },
  {
    "id": "23af3ad3-4ab3-4cc5-bfad-1d31560df98b",
    "GID_2": "PHL.46.17_1",
    "municipality": "Placer, Masbate",
    "suggested_area": true,
    "score": 22000,
    "longitude": 123.86582983410933,
    "latitude": 11.905277453570465,
    "facility_name": "Suggested Area",
    "population": 2858.2642211914062,
    "count": 55
  },
  {
    "id": "4e22358d-2ff8-44ae-a96a-640650302a89",
    "GID_2": "PHL.22.12_1",
    "municipality": "Pontevedra, Capiz",
    "suggested_area": true,
    "score": 21600,
    "longitude": 122.89110794846195,
    "latitude": 11.470832830490439,
    "facility_name": "Suggested Area",
    "population": 938.8260364532471,
    "count": 54
  },
  {
    "id": "421bc9e9-bcee-4b98-ae10-a62eb5a366df",
    "GID_2": "PHL.73.9_1",
    "municipality": "Pandami, Sulu",
    "suggested_area": true,
    "score": 21600,
    "longitude": 120.29499773379946,
    "latitude": 5.72666380191196,
    "facility_name": "Suggested Area",
    "population": 4360.502155303955,
    "count": 54
  },
  {
    "id": "3a36fa9e-3609-4436-a486-feaa2eaa7ed0",
    "GID_2": "PHL.60.19_1",
    "municipality": "Santa Ana, Pampanga",
    "suggested_area": true,
    "score": 21200,
    "longitude": 120.81999755251296,
    "latitude": 15.13361211434376,
    "facility_name": "Suggested Area",
    "population": 1006.5766129493713,
    "count": 53
  },
  {
    "id": "66e5a90e-b92c-4298-95da-e8be7edc1627",
    "GID_2": "PHL.79.24_1",
    "municipality": "Sindangan, Zamboanga del Norte",
    "suggested_area": true,
    "score": 21200,
    "longitude": 122.97999680665683,
    "latitude": 8.400276012370249,
    "facility_name": "Suggested Area",
    "population": 1288.8882217407227,
    "count": 53
  },
  {
    "id": "c1516712-aab4-4d84-a32f-026a9fdca15f",
    "GID_2": "PHL.9.5_1",
    "municipality": "Lamitan City, Basilan",
    "suggested_area": true,
    "score": 21200,
    "longitude": 122.06221934579263,
    "latitude": 6.751386445483725,
    "facility_name": "Suggested Area",
    "population": 866.3249082565308,
    "count": 53
  },
  {
    "id": "c899da10-c257-42b9-96da-1f4fb573cae1",
    "GID_2": "PHL.20.39_1",
    "municipality": "Tinambac, Camarines Sur",
    "suggested_area": true,
    "score": 20800,
    "longitude": 123.39082999812837,
    "latitude": 14.016389432737418,
    "facility_name": "Suggested Area",
    "population": 2856.59854888916,
    "count": 52
  },
  {
    "id": "ea48a8cb-aa96-4762-b015-96e7f8550744",
    "GID_2": "PHL.36.8_1",
    "municipality": "Barotac Viejo, Iloilo",
    "suggested_area": true,
    "score": 20800,
    "longitude": 122.91638571751112,
    "latitude": 11.0466659894128,
    "facility_name": "Suggested Area",
    "population": 702.3250579833984,
    "count": 52
  },
  {
    "id": "91f009e3-3c2a-4209-8e5f-32d3ddf83a9b",
    "GID_2": "PHL.12.23_1",
    "municipality": "San Juan, Batangas",
    "suggested_area": true,
    "score": 20400,
    "longitude": 121.4494417796096,
    "latitude": 13.807778235849247,
    "facility_name": "Suggested Area",
    "population": 352.8714141845703,
    "count": 51
  },
  {
    "id": "71f87cac-3816-46df-8748-d584b6b9e086",
    "GID_2": "PHL.65.2_1",
    "municipality": "Banton, Romblon",
    "suggested_area": true,
    "score": 20400,
    "longitude": 122.07610822988558,
    "latitude": 12.961666776829926,
    "facility_name": "Suggested Area",
    "population": 1319.348030090332,
    "count": 51
  },
  {
    "id": "ba511c0a-7271-4e15-ace6-c59a626a138b",
    "GID_2": "PHL.31.17_1",
    "municipality": "Oras, Eastern Samar",
    "suggested_area": true,
    "score": 20400,
    "longitude": 125.56082924881918,
    "latitude": 12.104999757916225,
    "facility_name": "Suggested Area",
    "population": 1241.6078052520752,
    "count": 51
  },
  {
    "id": "217238a1-cdf9-4a54-a861-b1319a3ebafa",
    "GID_2": "PHL.43.16_1",
    "municipality": "Inopacan, Leyte",
    "suggested_area": true,
    "score": 20400,
    "longitude": 124.76638507870037,
    "latitude": 10.550832452200476,
    "facility_name": "Suggested Area",
    "population": 891.8772468566895,
    "count": 51
  },
  {
    "id": "c2e809ac-8a69-42c7-afb3-413e636b328d",
    "GID_2": "PHL.74.7_1",
    "municipality": "General Luna, Surigao del Norte",
    "suggested_area": true,
    "score": 20400,
    "longitude": 126.12471794299502,
    "latitude": 9.83777660344814,
    "facility_name": "Suggested Area",
    "population": 1304.4496784210205,
    "count": 51
  },
  {
    "id": "b4c296c3-7011-4fff-8111-ed4ee9423dac",
    "GID_2": "PHL.79.11_1",
    "municipality": "Labason, Zamboanga del Norte",
    "suggested_area": true,
    "score": 20400,
    "longitude": 122.48471919990016,
    "latitude": 8.069720320896316,
    "facility_name": "Suggested Area",
    "population": 2215.324966430664,
    "count": 51
  },
  {
    "id": "d04bee87-ddf0-4e3a-9c9a-fc020691cb0a",
    "GID_2": "PHL.81.10_1",
    "municipality": "Olutanga, Zamboanga Sibugay",
    "suggested_area": true,
    "score": 20400,
    "longitude": 122.78860798385598,
    "latitude": 7.352775581654261,
    "facility_name": "Suggested Area",
    "population": 2791.643051147461,
    "count": 51
  },
  {
    "id": "ccb80919-fbfe-4160-8c96-d29b7a0a65ec",
    "GID_2": "PHL.73.1_1",
    "municipality": "Hadji Panglima Tahil, Sulu",
    "suggested_area": true,
    "score": 20400,
    "longitude": 120.85055309751952,
    "latitude": 6.340552943222304,
    "facility_name": "Suggested Area",
    "population": 2887.0157051086426,
    "count": 51
  },
  {
    "id": "0809ae14-eb4c-4dce-9cb8-d6ee0725746c",
    "GID_2": "PHL.59.19_1",
    "municipality": "Rizal, Palawan",
    "suggested_area": true,
    "score": 20000,
    "longitude": 117.4969431444213,
    "latitude": 8.891387325418659,
    "facility_name": "Suggested Area",
    "population": 798.299352645874,
    "count": 50
  },
  {
    "id": "c11667eb-a08d-4acd-9490-c7e3e28c8058",
    "GID_2": "PHL.21.5_1",
    "municipality": "Sagay, Camiguin",
    "suggested_area": true,
    "score": 20000,
    "longitude": 124.69860732432468,
    "latitude": 9.111665193770616,
    "facility_name": "Suggested Area",
    "population": 1675.309274673462,
    "count": 50
  },
  {
    "id": "3f047eb3-63d1-4621-b84f-004a8777ac89",
    "GID_2": "PHL.9.2_1",
    "municipality": "Al-Barka, Basilan",
    "suggested_area": true,
    "score": 20000,
    "longitude": 122.19360818931193,
    "latitude": 6.510553013123375,
    "facility_name": "Suggested Area",
    "population": 907.815086364746,
    "count": 50
  },
  {
    "id": "4f7a0da3-c8fc-4547-8c78-f26a98fe91a8",
    "GID_2": "PHL.70.5_1",
    "municipality": "Norala, South Cotabato",
    "suggested_area": true,
    "score": 20000,
    "longitude": 124.64305178795288,
    "latitude": 6.5880530449902,
    "facility_name": "Suggested Area",
    "population": 260.5381746292114,
    "count": 50
  },
  {
    "id": "2ba20d92-8198-42ff-9f34-8ba86c6a73e6",
    "GID_2": "PHL.69.2_1",
    "municipality": "Bulan, Sorsogon",
    "suggested_area": true,
    "score": 19600,
    "longitude": 123.84721872942478,
    "latitude": 12.744722243181908,
    "facility_name": "Suggested Area",
    "population": 2366.190103530884,
    "count": 49
  },
  {
    "id": "9d51017f-6075-49fd-ad74-b73433de6a7f",
    "GID_2": "PHL.25.44_1",
    "municipality": "San Remigio, Cebu",
    "suggested_area": true,
    "score": 19600,
    "longitude": 123.91527426148023,
    "latitude": 11.011665975021442,
    "facility_name": "Suggested Area",
    "population": 844.0754041671753,
    "count": 49
  },
  {
    "id": "d934b9c6-9e28-4684-bb47-263680eff993",
    "GID_2": "PHL.25.10_1",
    "municipality": "Barili, Cebu",
    "suggested_area": true,
    "score": 19600,
    "longitude": 123.52221884164767,
    "latitude": 10.181665633737827,
    "facility_name": "Suggested Area",
    "population": 1199.7678852081299,
    "count": 49
  },
  {
    "id": "5ef1f5ac-1202-416f-8335-3b6d6ffa8ce3",
    "GID_2": "PHL.49.12_1",
    "municipality": "Kinoguitan, Misamis Oriental",
    "suggested_area": true,
    "score": 19600,
    "longitude": 124.82194061507217,
    "latitude": 9.004720705352579,
    "facility_name": "Suggested Area",
    "population": 979.7031116485596,
    "count": 49
  },
  {
    "id": "8b1301a0-11e5-490c-8fe3-85c36a1346bf",
    "GID_2": "PHL.18.1_1",
    "municipality": "Abulug, Cagayan",
    "suggested_area": true,
    "score": 19200,
    "longitude": 121.41110845951306,
    "latitude": 18.47722460029494,
    "facility_name": "Suggested Area",
    "population": 684.1936187744141,
    "count": 48
  },
  {
    "id": "61d79c18-2a3b-4b0c-8a4a-1f1f82d9d1a4",
    "GID_2": "PHL.4.17_1",
    "municipality": "Tangalan, Aklan",
    "suggested_area": true,
    "score": 19200,
    "longitude": 122.27166371791431,
    "latitude": 11.770277398060943,
    "facility_name": "Suggested Area",
    "population": 1543.5380897521973,
    "count": 48
  },
  {
    "id": "2bee7bab-a77f-4c5b-b6a5-2e2d213e8265",
    "GID_2": "PHL.74.21_1",
    "municipality": "Tagana-An, Surigao del Norte",
    "suggested_area": true,
    "score": 19200,
    "longitude": 125.68082920738226,
    "latitude": 9.743054342277878,
    "facility_name": "Suggested Area",
    "population": 1180.118501663208,
    "count": 48
  },
  {
    "id": "39ae041c-55de-40a7-b81c-06cd839045c3",
    "GID_2": "PHL.23.6_1",
    "municipality": "Pandan, Catanduanes",
    "suggested_area": true,
    "score": 18800,
    "longitude": 124.13194085333025,
    "latitude": 14.059445005996627,
    "facility_name": "Suggested Area",
    "population": 688.2767038345337,
    "count": 47
  },
  {
    "id": "1a3fa0d6-73ce-4d48-8e42-b8acf5710fb2",
    "GID_2": "PHL.36.35_1",
    "municipality": "San Dionisio, Iloilo",
    "suggested_area": true,
    "score": 18800,
    "longitude": 123.14527452736502,
    "latitude": 11.376943902996162,
    "facility_name": "Suggested Area",
    "population": 1699.171257019043,
    "count": 47
  },
  {
    "id": "88e791db-6a8f-4f94-8bd3-ca05beb2ab55",
    "GID_2": "PHL.74.19_1",
    "municipality": "Socorro, Surigao del Norte",
    "suggested_area": true,
    "score": 18800,
    "longitude": 125.94638467124155,
    "latitude": 9.754721013741664,
    "facility_name": "Suggested Area",
    "population": 709.2869069576263,
    "count": 47
  },
  {
    "id": "b5826944-190f-458e-aff3-2cee2dc7bc69",
    "GID_2": "PHL.48.13_1",
    "municipality": "Plaridel, Misamis Occidental",
    "suggested_area": true,
    "score": 18800,
    "longitude": 123.67444101130849,
    "latitude": 8.641942778407238,
    "facility_name": "Suggested Area",
    "population": 2294.351848602295,
    "count": 47
  },
  {
    "id": "8d13232a-e85a-465e-ab5d-e7f22ae08c28",
    "GID_2": "PHL.14.6_1",
    "municipality": "Kawayan, Biliran",
    "suggested_area": true,
    "score": 18400,
    "longitude": 124.39555187341652,
    "latitude": 11.697221812466283,
    "facility_name": "Suggested Area",
    "population": 1178.0600872039795,
    "count": 46
  },
  {
    "id": "c4c0ab18-e55a-4911-a0f7-e0393688ae2f",
    "GID_2": "PHL.75.1_1",
    "municipality": "Barobo, Surigao del Sur",
    "suggested_area": true,
    "score": 18400,
    "longitude": 126.19110680895932,
    "latitude": 8.553609408751434,
    "facility_name": "Suggested Area",
    "population": 1329.8941917419434,
    "count": 46
  },
  {
    "id": "5db6d280-5157-4087-8b9d-0c873dcc6494",
    "GID_2": "PHL.62.16_1",
    "municipality": "Jomalig, Quezon",
    "suggested_area": true,
    "score": 18000,
    "longitude": 122.42249699916374,
    "latitude": 14.716111942675424,
    "facility_name": "Suggested Area",
    "population": 846.7960109710693,
    "count": 45
  },
  {
    "id": "102a08b9-0736-40cf-928a-25bc45108d99",
    "GID_2": "PHL.62.8_1",
    "municipality": "Catanauan, Quezon",
    "suggested_area": true,
    "score": 18000,
    "longitude": 122.20305263049514,
    "latitude": 13.630278162864505,
    "facility_name": "Suggested Area",
    "population": 428.828182220459,
    "count": 45
  },