[
  {
    "id": "a1a625e8-4ad1-4a23-91fb-25b649696e85",
    "GID_2": "PHL.22.17_1",
    "municipality": "Tapaz, Capiz",
    "suggested_area": true,
    "score": 1517600,
    "longitude": 122.36944146192867,
    "latitude": 11.346666112767293,
    "facility_name": "",
    "pvout_average_mean": 1355.0919397336945,
    "pvout_average_min": 1346.0849894441676,
    "pvout_average_max": 1362.5044638996194,
    "population": 38319.065742492676,
    "count": 3794
  },
  {
    "id": "1cb21743-8d79-4a8e-968f-0192f17dfc36",
    "GID_2": "PHL.76.14_1",
    "municipality": "San Jose, Tarlac",
    "suggested_area": true,
    "score": 1263600,
    "longitude": 120.50221988446627,
    "latitude": 15.543890060821656,
    "facility_name": "",
    "pvout_average_mean": 1542.4234614728969,
    "pvout_average_min": 1526.5853365771036,
    "pvout_average_max": 1555.9358027241735,
    "population": 23991.905210852623,
    "count": 3159
  },
  {
    "id": "2bb6fd40-be19-4166-bd17-37919292e48f",
    "GID_2": "PHL.58.4_1",
    "municipality": "Bulalacao, Oriental Mindoro",
    "suggested_area": true,
    "score": 1020400,
    "longitude": 121.24249740662256,
    "latitude": 12.454999901829801,
    "facility_name": "",
    "pvout_average_mean": 1591.8654845800854,
    "pvout_average_min": 1571.6706213268847,
    "pvout_average_max": 1610.9717812771798,
    "population": 31602.060343027115,
    "count": 2551
  },
  {
    "id": "2d8302ad-f81d-4e14-bf69-b87bd6e4433e",
    "GID_2": "PHL.22.6_1",
    "municipality": "Jamindan, Capiz",
    "suggested_area": true,
    "score": 978400,
    "longitude": 122.47999697930855,
    "latitude": 11.434721704531102,
    "facility_name": "",
    "pvout_average_mean": 1335.4076247260084,
    "pvout_average_min": 1309.8164382897141,
    "pvout_average_max": 1359.4868789884952,
    "population": 17747.20581960678,
    "count": 2446
  },
  {
    "id": "5be3526c-1b86-4c8d-b2c7-2434b15b2ab5",
    "GID_2": "PHL.58.1_1",
    "municipality": "Baco, Oriental Mindoro",
    "suggested_area": true,
    "score": 712000,
    "longitude": 121.09555301291915,
    "latitude": 13.41611140813501,
    "facility_name": "",
    "pvout_average_mean": 1311.4647587098834,
    "pvout_average_min": 1253.6125529428546,
    "pvout_average_max": 1374.7993492555083,
    "population": 14000.98050737381,
    "count": 1780
  },
  {
    "id": "ce3c3432-8c6c-4b5f-84bb-8974b7c62a86",
    "GID_2": "PHL.73.12_1",
    "municipality": "Parang, Sulu",
    "suggested_area": true,
    "score": 528400,
    "longitude": 120.89916419184485,
    "latitude": 6.005275027583385,
    "facility_name": "",
    "pvout_average_mean": 1430.5775710488358,
    "pvout_average_min": 1423.060427484505,
    "pvout_average_max": 1437.6059876181337,
    "population": 47290.481702804565,
    "count": 1321
  },
  {
    "id": "9506c832-29a4-428b-b68f-0213b3f92a34",
    "GID_2": "PHL.72.1_1",
    "municipality": "Bagumbayan, Sultan Kudarat",
    "suggested_area": true,
    "score": 462000,
    "longitude": 124.57832958807974,
    "latitude": 6.598886382778036,
    "facility_name": "",
    "pvout_average_mean": 1465.875016171379,
    "pvout_average_min": 1425.5124323593075,
    "pvout_average_max": 1493.343172200521,
    "population": 19431.269234657288,
    "count": 1155
  },
  {
    "id": "57f69049-107e-4c91-9c98-a6513a8ac251",
    "GID_2": "PHL.57.5_1",
    "municipality": "Magsaysay, Occidental Mindoro",
    "suggested_area": true,
    "score": 410800,
    "longitude": 121.2144418607548,
    "latitude": 12.45777768074975,
    "facility_name": "",
    "pvout_average_mean": 1535.287981253822,
    "pvout_average_min": 1511.0120447858978,
    "pvout_average_max": 1559.8048168208375,
    "population": 11083.812067866325,
    "count": 1027
  },
  {
    "id": "70f9ddd4-c6e6-4f3a-9895-b6c83ba001a6",
    "GID_2": "PHL.26.11_1",
    "municipality": "Pantukan, Compostela Valley",
    "suggested_area": true,
    "score": 409600,
    "longitude": 125.86221803363827,
    "latitude": 7.251386651075798,
    "facility_name": "",
    "pvout_average_mean": 1277.9855200807094,
    "pvout_average_min": 1179.0139322280884,
    "pvout_average_max": 1392.5035771131516,
    "population": 23010.18447303772,
    "count": 1024
  },
  {
    "id": "48118a64-71e1-4a83-8a84-bab84cfdc54b",
    "GID_2": "PHL.55.12_1",
    "municipality": "Jaen, Nueva Ecija",
    "suggested_area": true,
    "score": 357200,
    "longitude": 120.8380531018338,
    "latitude": 15.429167791427762,
    "facility_name": "",
    "pvout_average_mean": 1525.1743417208434,
    "pvout_average_min": 1521.0201904023481,
    "pvout_average_max": 1529.6949713045913,
    "population": 25739.039360523224,
    "count": 893
  },
  {
    "id": "6360eb93-e8b1-47c8-949c-3669224d5d3b",
    "GID_2": "PHL.73.6_1",
    "municipality": "Luuk, Sulu",
    "suggested_area": true,
    "score": 327200,
    "longitude": 121.39416402091757,
    "latitude": 6.046108377706767,
    "facility_name": "",
    "pvout_average_mean": 1478.8549932704232,
    "pvout_average_min": 1460.7967542727595,
    "pvout_average_max": 1495.4782737228281,
    "population": 10343.474378824234,
    "count": 818
  },
  {
    "id": "21a98502-27ed-417b-b267-60eb969410f6",
    "GID_2": "PHL.72.5_1",
    "municipality": "Isulan, Sultan Kudarat",
    "suggested_area": true,
    "score": 278000,
    "longitude": 124.64194067722545,
    "latitude": 6.603053051157973,
    "facility_name": "",
    "pvout_average_mean": 1504.422356794338,
    "pvout_average_min": 1498.6375370601957,
    "pvout_average_max": 1507.5047358012027,
    "population": 9199.114567756653,
    "count": 695
  },
  {
    "id": "bd38b3cb-439c-48fa-b8e0-21b34d152e96",
    "GID_2": "PHL.61.5_1",
    "municipality": "Anda, Pangasinan",
    "suggested_area": true,
    "score": 242400,
    "longitude": 119.96110896020286,
    "latitude": 16.365557065345424,
    "facility_name": "",
    "pvout_average_mean": 1626.4908167830492,
    "pvout_average_min": 1622.367063415326,
    "pvout_average_max": 1630.6349479247242,
    "population": 5931.9771065711975,
    "count": 606
  },
  {
    "id": "778b33f2-588b-4dcb-b4e1-ad20ef4deb48",
    "GID_2": "PHL.13.8_1",
    "municipality": "Kapangan, Benguet",
    "suggested_area": true,
    "score": 239600,
    "longitude": 120.59555318557089,
    "latitude": 16.60166827354109,
    "facility_name": "",
    "pvout_average_mean": 1484.5719247059387,
    "pvout_average_min": 1461.4224185083863,
    "pvout_average_max": 1505.731629946395,
    "population": 5619.53902053833,
    "count": 599
  },
  {
    "id": "491df3b6-924b-4786-af54-aacf025fc75d",
    "GID_2": "PHL.59.23_1",
    "municipality": "Taytay, Palawan",
    "suggested_area": true,
    "score": 233200,
    "longitude": 119.5944424201469,
    "latitude": 11.184166045950276,
    "facility_name": "",
    "pvout_average_mean": 1450.8588174798367,
    "pvout_average_min": 1413.1540646692083,
    "pvout_average_max": 1489.1929965141912,
    "population": 10766.628860473633,
    "count": 583
  },
  {
    "id": "a84fd86f-d7dd-43d0-a5a7-474b25b00155",
    "GID_2": "PHL.12.34_1",
    "municipality": "Tingloy, Batangas",
    "suggested_area": true,
    "score": 195600,
    "longitude": 120.82999754905988,
    "latitude": 13.687500408615454,
    "facility_name": "",
    "pvout_average_mean": 1505.6337338986311,
    "pvout_average_min": 1500.7971995223031,
    "pvout_average_max": 1510.904812366197,
    "population": 7177.7450132369995,
    "count": 489
  },
  {
    "id": "ca86ca58-225b-4797-be0a-1eb0162dfe53",
    "GID_2": "PHL.15.31_1",
    "municipality": "Loon, Bohol",
    "suggested_area": true,
    "score": 190400,
    "longitude": 123.76777431241311,
    "latitude": 9.891387736603155,
    "facility_name": "",
    "pvout_average_mean": 1383.5271931308125,
    "pvout_average_min": 1376.0242771180738,
    "pvout_average_max": 1390.2121576902246,
    "population": 4092.7652802467346,
    "count": 476
  },
  {
    "id": "5b56f9af-abbb-49ff-bd1b-c5b33fb204e8",
    "GID_2": "PHL.43.4_1",
    "municipality": "Babatngon, Leyte",
    "suggested_area": true,
    "score": 189600,
    "longitude": 124.8786072621714,
    "latitude": 11.440555040262995,
    "facility_name": "",
    "pvout_average_mean": 1358.824434492648,
    "pvout_average_min": 1348.4275430284974,
    "pvout_average_max": 1366.1274184858748,
    "population": 10268.261311531067,
    "count": 474
  },
  {
    "id": "671019b1-faa9-4f88-9602-27bfd9bcc754",
    "GID_2": "PHL.5.16_1",
    "municipality": "Rapu-Rapu, Albay",
    "suggested_area": true,
    "score": 188800,
    "longitude": 123.96666313262415,
    "latitude": 13.303611361877074,
    "facility_name": "",
    "pvout_average_mean": 1449.488448272941,
    "pvout_average_min": 1439.625885268389,
    "pvout_average_max": 1458.678384554588,
    "population": 15529.859366416931,
    "count": 472
  },
  {
    "id": "3844d165-5bbf-43b2-8d6d-f54a6d507ec3",
    "GID_2": "PHL.36.13_1",
    "municipality": "Carles, Iloilo",
    "suggested_area": true,
    "score": 186400,
    "longitude": 123.358052231669,
    "latitude": 11.63805512147137,
    "facility_name": "",
    "pvout_average_mean": 1553.2898326481286,
    "pvout_average_min": 1547.0554474269884,
    "pvout_average_max": 1560.243131056364,
    "population": 14342.454816818237,
    "count": 466
  },
  {
    "id": "44bab47b-5be7-41f5-8321-95d3353531c3",
    "GID_2": "PHL.43.2_1",
    "municipality": "Alangalang, Leyte",
    "suggested_area": true,
    "score": 181600,
    "longitude": 124.88027392826255,
    "latitude": 11.275554972416598,
    "facility_name": "",
    "pvout_average_mean": 1368.2944277167278,
    "pvout_average_min": 1365.5178252232758,
    "pvout_average_max": 1370.8708555246765,
    "population": 9057.567163467407,
    "count": 454
  },
  {
    "id": "00bd2bf9-49bf-442e-ba91-35be03d9fb3d",
    "GID_2": "PHL.28.6_1",
    "municipality": "Jose Abad Santos, Davao del Sur",
    "suggested_area": true,
    "score": 180400,
    "longitude": 125.65777365978796,
    "latitude": 6.027775036835044,
    "facility_name": "",
    "pvout_average_mean": 1381.6461823513414,
    "pvout_average_min": 1289.5908303271376,
    "pvout_average_max": 1468.1666075712826,
    "population": 32465.662187576294,
    "count": 451
  },
  {
    "id": "ceaec74f-d8a8-4ad2-8339-aa5b0cd92724",
    "GID_2": "PHL.61.14_1",
    "municipality": "Bolinao, Pangasinan",
    "suggested_area": true,
    "score": 163200,
    "longitude": 119.92249786242446,
    "latitude": 16.443057097212,
    "facility_name": "",
    "pvout_average_mean": 1626.8544745724148,
    "pvout_average_min": 1623.6658301259956,
    "pvout_average_max": 1629.43323023179,
    "population": 5049.984706401825,
    "count": 408
  },
  {
    "id": "712a1d52-dd78-467b-9d2e-592dd4412a06",
    "GID_2": "PHL.55.32_1",
    "municipality": "Zaragoza, Nueva Ecija",
    "suggested_area": true,
    "score": 162000,
    "longitude": 120.82166421860411,
    "latitude": 15.43361223769968,
    "facility_name": "",
    "pvout_average_mean": 1546.5548878761638,
    "pvout_average_min": 1544.3989800347222,
    "pvout_average_max": 1548.8929660373265,
    "population": 2445.7709720134735,
    "count": 405
  },
  {
    "id": "d7f72a35-ce23-4495-9696-cbca318fa032",
    "GID_2": "PHL.9.6_1",
    "municipality": "Lantawan, Basilan",
    "suggested_area": true,
    "score": 159200,
    "longitude": 121.55055285580627,
    "latitude": 6.835275368866453,
    "facility_name": "",
    "pvout_average_mean": 1439.744381674705,
    "pvout_average_min": 1432.6039603535255,
    "pvout_average_max": 1451.639277012504,
    "population": 5125.708550453186,
    "count": 398
  },
  {
    "id": "6034c76f-8710-45c6-8010-30e81d582259",
    "GID_2": "PHL.46.20_1",
    "municipality": "San Pascual, Masbate",
    "suggested_area": true,
    "score": 158000,
    "longitude": 122.86305240259419,
    "latitude": 13.163611304311644,
    "facility_name": "",
    "pvout_average_mean": 1509.6915046222596,
    "pvout_average_min": 1501.6122323724287,
    "pvout_average_max": 1517.056298828125,
    "population": 11121.269756317139,
    "count": 395
  },
  {
    "id": "6423e1e7-a244-4906-9dfe-a1cb22d7716b",
    "GID_2": "PHL.73.18_1",
    "municipality": "Tongkil, Sulu",
    "suggested_area": true,
    "score": 156400,
    "longitude": 121.83610831275732,
    "latitude": 6.241941791563798,
    "facility_name": "",
    "pvout_average_mean": 1505.7624994376156,
    "pvout_average_min": 1500.8450062939578,
    "pvout_average_max": 1509.7958653442695,
    "population": 6018.06561422348,
    "count": 391
  },
  {
    "id": "4297285d-7cfb-4a9a-986c-a2f031acacc7",
    "GID_2": "PHL.73.2_1",
    "municipality": "Indanan, Sulu",
    "suggested_area": true,
    "score": 149600,
    "longitude": 120.965830835491,
    "latitude": 6.044163932462796,
    "facility_name": "",
    "pvout_average_mean": 1362.7981348062588,
    "pvout_average_min": 1354.8058589180523,
    "pvout_average_max": 1371.0838720964239,
    "population": 13937.086198806763,
    "count": 374
  },
  {
    "id": "75fc042f-8418-4d8b-82bb-b605627e6960",
    "GID_2": "PHL.15.44_1",
    "municipality": "Talibon, Bohol",
    "suggested_area": true,
    "score": 140800,
    "longitude": 124.2988852401296,
    "latitude": 10.246943438358054,
    "facility_name": "",
    "pvout_average_mean": 1466.7497280818525,
    "pvout_average_min": 1458.559668454257,
    "pvout_average_max": 1472.5781319358132,
    "population": 6404.388259887695,
    "count": 352
  },
  {
    "id": "b16a7f3f-76ff-425d-bca2-9440ea6ba4b5",
    "GID_2": "PHL.66.6_1",
    "municipality": "Daram, Samar",
    "suggested_area": true,
    "score": 130400,
    "longitude": 124.72582953714686,
    "latitude": 11.726110713233753,
    "facility_name": "",
    "pvout_average_mean": 1428.7663517392082,
    "pvout_average_min": 1422.508632168448,
    "pvout_average_max": 1434.2111846362154,
    "population": 9256.352902412415,
    "count": 326
  },
  {
    "id": "cb66e87e-8ceb-49eb-837f-8999e724dc40",
    "GID_2": "PHL.25.37_1",
    "municipality": "Pilar, Cebu",
    "suggested_area": true,
    "score": 128400,
    "longitude": 124.55388515207615,
    "latitude": 10.778054767852305,
    "facility_name": "",
    "pvout_average_mean": 1459.9853311127656,
    "pvout_average_min": 1456.2290689343604,
    "pvout_average_max": 1465.2089125018254,
    "population": 3442.4493083953857,
    "count": 321
  },
  {
    "id": "e494fe01-aeb7-47e4-b6e9-e48504a51c78",
    "GID_2": "PHL.57.9_1",
    "municipality": "Sablayan, Occidental Mindoro",
    "suggested_area": true,
    "score": 127600,
    "longitude": 120.77416423500622,
    "latitude": 12.962777888397905,
    "facility_name": "",
    "pvout_average_mean": 1505.4519098989626,
    "pvout_average_min": 1442.1924903415213,
    "pvout_average_max": 1547.9638277729478,
    "population": 2244.77911233902,
    "count": 319
  },
  {
    "id": "abc73a65-58cf-441c-ba28-03d60efe60a2",
    "GID_2": "PHL.31.9_1",
    "municipality": "Guiuan, Eastern Samar",
    "suggested_area": true,
    "score": 123600,
    "longitude": 125.70388475497656,
    "latitude": 11.062499329256509,
    "facility_name": "",
    "pvout_average_mean": 1473.204387487757,
    "pvout_average_min": 1465.9043517868881,
    "pvout_average_max": 1478.5876239665504,
    "population": 6280.055278301239,
    "count": 309
  },
  {
    "id": "bef89d4e-04ad-4751-95a2-90b9e149c966",
    "GID_2": "PHL.73.14_1",
    "municipality": "Patikul, Sulu",
    "suggested_area": true,
    "score": 123200,
    "longitude": 121.10971967469396,
    "latitude": 6.090552840426093,
    "facility_name": "",
    "pvout_average_mean": 1424.7196825580909,
    "pvout_average_min": 1413.0110045594054,
    "pvout_average_max": 1436.290077506722,
    "population": 4045.3338230848312,
    "count": 308
  },
  {
    "id": "31d9a536-531d-423c-bde2-a815d1a742da",
    "GID_2": "PHL.73.11_1",
    "municipality": "Pangutaran, Sulu",
    "suggested_area": true,
    "score": 121600,
    "longitude": 120.78527534228058,
    "latitude": 6.426386311848651,
    "facility_name": "",
    "pvout_average_mean": 1519.7187375609192,
    "pvout_average_min": 1501.6415778712224,
    "pvout_average_max": 1533.0769199572112,
    "population": 5464.147268295288,
    "count": 304
  },
  {
    "id": "b475dacd-7d1e-4dfb-a486-3ac3103cf88a",
    "GID_2": "PHL.77.6_1",
    "municipality": "Sibutu, Tawi-Tawi",
    "suggested_area": true,
    "score": 119600,
    "longitude": 119.45194246935324,
    "latitude": 4.858607889425469,
    "facility_name": "",
    "pvout_average_mean": 1473.5857633087498,
    "pvout_average_min": 1454.9557640050168,
    "pvout_average_max": 1486.587176983173,
    "population": 8266.655687332153,
    "count": 299
  },
  {
    "id": "d43acca9-2ca0-4cc2-b164-9d5e38cfa4b0",
    "GID_2": "PHL.59.4_1",
    "municipality": "Balabac, Palawan",
    "suggested_area": true,
    "score": 119200,
    "longitude": 117.31666542889481,
    "latitude": 8.349164880243187,
    "facility_name": "",
    "pvout_average_mean": 1084.755617504707,
    "pvout_average_min": 1070.2977147454383,
    "pvout_average_max": 1097.7551871690175,
    "population": 12807.022354125977,
    "count": 298
  },
  {
    "id": "b889aa28-b747-4c1b-a28f-109dc2110e0c",
    "GID_2": "PHL.25.45_1",
    "municipality": "Santa Fe, Cebu",
    "suggested_area": true,
    "score": 111200,
    "longitude": 123.89499649070453,
    "latitude": 11.347777224335273,
    "facility_name": "",
    "pvout_average_mean": 1543.7621271147145,
    "pvout_average_min": 1541.1202594564973,
    "pvout_average_max": 1546.4328832832173,
    "population": 5778.55046749115,
    "count": 278
  },
  {
    "id": "dc9ffc7b-5640-413d-9f86-d8af21f66860",
    "GID_2": "PHL.9.8_1",
    "municipality": "Sumisip, Basilan",
    "suggested_area": true,
    "score": 111200,
    "longitude": 121.91305273063226,
    "latitude": 6.458052991536171,
    "facility_name": "",
    "pvout_average_mean": 1475.1863300111806,
    "pvout_average_min": 1467.70852946549,
    "pvout_average_max": 1483.4128426750788,
    "population": 5117.831267356873,
    "count": 278
  },
  {
    "id": "2a3a4435-0868-4032-bc3c-dec3354a89c7",
    "GID_2": "PHL.77.5_1",
    "municipality": "Sapa-Sapa, Tawi-Tawi",
    "suggested_area": true,
    "score": 106800,
    "longitude": 120.1674977778241,
    "latitude": 5.152774677049011,
    "facility_name": "",
    "pvout_average_mean": 1498.355825611804,
    "pvout_average_min": 1494.4757642424509,
    "pvout_average_max": 1502.2842258639103,
    "population": 9613.625957489014,
    "count": 267
  },
  {
    "id": "f65ba491-fb2d-4ea7-a51f-05dfd285bbb9",
    "GID_2": "PHL.66.21_1",
    "municipality": "Santo Nino, Samar",
    "suggested_area": true,
    "score": 102400,
    "longitude": 124.43055186133076,
    "latitude": 11.984166374898443,
    "facility_name": "",
    "pvout_average_mean": 1481.4183876769855,
    "pvout_average_min": 1476.3176283836365,
    "pvout_average_max": 1487.5791854858398,
    "population": 10938.36784362793,
    "count": 256
  },
  {
    "id": "8a2c1f5f-ce2b-486e-ac6a-bb88ee3e5b35",
    "GID_2": "PHL.6.9_1",
    "municipality": "Libertad, Antique",
    "suggested_area": true,
    "score": 102400,
    "longitude": 121.90444162249463,
    "latitude": 11.765832951789024,
    "facility_name": "",
    "pvout_average_mean": 1480.1045689582825,
    "pvout_average_min": 1478.4350881576538,
    "pvout_average_max": 1481.7478976249695,
    "population": 4820.3766746521,
    "count": 256
  },
  {
    "id": "d1ceee79-3058-4bb3-97d8-3a8393b1a1c5",
    "GID_2": "PHL.15.36_1",
    "municipality": "Pres. Carlos P. Garcia, Bohol",
    "suggested_area": true,
    "score": 102000,
    "longitude": 124.61721846354,
    "latitude": 10.265554557121712,
    "facility_name": "",
    "pvout_average_mean": 1450.447072538154,
    "pvout_average_min": 1447.4184374042586,
    "pvout_average_max": 1453.527432789522,
    "population": 3450.2051315307617,
    "count": 255
  },
  {
    "id": "310d9c0a-05c6-4e85-96d1-d9cc5c316e06",
    "GID_2": "PHL.46.12_1",
    "municipality": "Milagros, Masbate",
    "suggested_area": true,
    "score": 101600,
    "longitude": 123.5402743909685,
    "latitude": 12.226944252501987,
    "facility_name": "",
    "pvout_average_mean": 1485.3076561673097,
    "pvout_average_min": 1472.6146302711306,
    "pvout_average_max": 1495.8538462721456,
    "population": 5415.1715450286865,
    "count": 254
  },
  {
    "id": "7c1b66aa-5544-485c-8329-7135bae4dcdc",
    "GID_2": "PHL.71.17_1",
    "municipality": "Silago, Southern Leyte",
    "suggested_area": true,
    "score": 99200,
    "longitude": 125.15194050112065,
    "latitude": 10.620832480983191,
    "facility_name": "",
    "pvout_average_mean": 1346.2453502551468,
    "pvout_average_min": 1286.0895277454008,
    "pvout_average_max": 1381.5005399642453,
    "population": 4083.3887186050415,
    "count": 248
  },
  {
    "id": "2a538795-3680-49ea-8f4f-f1ac9ab4e64b",
    "GID_2": "PHL.78.4_1",
    "municipality": "Castillejos, Zambales",
    "suggested_area": true,
    "score": 97600,
    "longitude": 120.17055333232454,
    "latitude": 14.941945368867279,
    "facility_name": "",
    "pvout_average_mean": 1470.8446567055325,
    "pvout_average_min": 1458.7381111520235,
    "pvout_average_max": 1475.321430644051,
    "population": 2940.064761161804,
    "count": 244
  },
  {
    "id": "50ca9f5d-a1a4-4d1f-8886-ce3ab156acf8",
    "GID_2": "PHL.75.2_1",
    "municipality": "Bayabas, Surigao del Sur",
    "suggested_area": true,
    "score": 96800,
    "longitude": 126.25416234274131,
    "latitude": 8.99916514751268,
    "facility_name": "",
    "pvout_average_mean": 1414.5405685943185,
    "pvout_average_min": 1403.8112858543711,
    "pvout_average_max": 1422.1383450090393,
    "population": 4595.72994852066,
    "count": 242
  },
  {
    "id": "8df42f81-be23-43af-86a1-7c5964afe57f",
    "GID_2": "PHL.43.9_1",
    "municipality": "Calubian, Leyte",
    "suggested_area": true,
    "score": 96400,
    "longitude": 124.31416301263184,
    "latitude": 11.563332868524741,
    "facility_name": "",
    "pvout_average_mean": 1442.8455277318644,
    "pvout_average_min": 1434.8505028689056,
    "pvout_average_max": 1450.52899397854,
    "population": 3843.436002254486,
    "count": 241
  },
  {
    "id": "0d5086ea-6469-454e-9d87-b82625ef976f",
    "GID_2": "PHL.62.34_1",
    "municipality": "San Andres, Quezon",
    "suggested_area": true,
    "score": 93200,
    "longitude": 122.65721914033668,
    "latitude": 13.42916696905877,
    "facility_name": "",
    "pvout_average_mean": 1564.0938862832013,
    "pvout_average_min": 1552.387405591973,
    "pvout_average_max": 1573.0739803723511,
    "population": 6453.822196960449,
    "count": 233
  },
  {
    "id": "6873036f-08a9-44ee-8453-f1155dbdfd4e",
    "GID_2": "PHL.46.10_1",
    "municipality": "Mandaon, Masbate",
    "suggested_area": true,
    "score": 92000,
    "longitude": 123.25999670997278,
    "latitude": 12.326388737836162,
    "facility_name": "",
    "pvout_average_mean": 1442.0201980289823,
    "pvout_average_min": 1434.5480022927989,
    "pvout_average_max": 1448.9755190641984,
    "population": 6091.347985267639,
    "count": 230
  },
  {
    "id": "ef2e102f-777b-4bc0-bc2e-bc0958439f48",
    "GID_2": "PHL.26.3_1",
    "municipality": "Mabini, Compostela Valley",
    "suggested_area": true,
    "score": 89200,
    "longitude": 125.83860693067817,
    "latitude": 7.254997763671743,
    "facility_name": "",
    "pvout_average_mean": 1341.7966302296566,
    "pvout_average_min": 1295.42724609375,
    "pvout_average_max": 1383.9895342497548,
    "population": 3208.769076347351,
    "count": 223
  },
  {
    "id": "5f9ec6d5-fcc1-4102-b2f3-ea4363867848",
    "GID_2": "PHL.62.36_1",
    "municipality": "San Francisco, Quezon",
    "suggested_area": true,
    "score": 88000,
    "longitude": 122.49638586253823,
    "latitude": 13.390833619963473,
    "facility_name": "",
    "pvout_average_mean": 1543.5330181171564,
    "pvout_average_min": 1512.0021911621093,
    "pvout_average_max": 1567.4888449928978,
    "population": 4756.779534339905,
    "count": 220
  },
  {
    "id": "03fad980-053d-4d44-82c0-f5887674d4ab",
    "GID_2": "PHL.5.18_1",
    "municipality": "Tabaco City, Albay",
    "suggested_area": true,
    "score": 87200,
    "longitude": 123.76749653473125,
    "latitude": 13.404722514563218,
    "facility_name": "",
    "pvout_average_mean": 1433.2847139046255,
    "pvout_average_min": 1422.005400211439,
    "pvout_average_max": 1441.839238997993,
    "population": 4953.266586303711,
    "count": 218
  },
  {
    "id": "ab8b0b4f-869f-4cf0-ae3f-7a303049fbba",
    "GID_2": "PHL.68.1_1",
    "municipality": "Enrique Villanueva, Siquijor",
    "suggested_area": true,
    "score": 87200,
    "longitude": 123.6066632569328,
    "latitude": 9.300276382436579,
    "facility_name": "",
    "pvout_average_mean": 1515.665763328523,
    "pvout_average_min": 1511.488379802179,
    "pvout_average_max": 1519.383029762758,
    "population": 1486.6806063652039,
    "count": 218
  },
  {
    "id": "754168b0-02b9-4b08-892e-4f8102367d41",
    "GID_2": "PHL.2.2_1",
    "municipality": "Butuan City, Agusan del Norte",
    "suggested_area": true,
    "score": 86000,
    "longitude": 125.4672181700327,
    "latitude": 8.991665144428818,
    "facility_name": "",
    "pvout_average_mean": 1377.3752943426607,
    "pvout_average_min": 1360.1536371275436,
    "pvout_average_max": 1389.103655863917,
    "population": 3289.990334749222,
    "count": 215
  },
  {
    "id": "c4311895-b021-439e-b48f-e01eade6cd09",
    "GID_2": "PHL.4.4_1",
    "municipality": "Batan, Aklan",
    "suggested_area": true,
    "score": 84400,
    "longitude": 122.44638587980361,
    "latitude": 11.607777331243925,
    "facility_name": "",
    "pvout_average_mean": 1456.8663091640194,
    "pvout_average_min": 1450.6205643929577,
    "pvout_average_max": 1463.4594373657806,
    "population": 1983.6162481307983,
    "count": 211
  },
  {
    "id": "c6c12be7-54a2-493b-9acc-94a7005c23fd",
    "GID_2": "PHL.6.10_1",
    "municipality": "Pandan, Antique",
    "suggested_area": true,
    "score": 82800,
    "longitude": 122.0569415698373,
    "latitude": 11.741666275185468,
    "facility_name": "",
    "pvout_average_mean": 1420.0761624068502,
    "pvout_average_min": 1408.9227412864207,
    "pvout_average_max": 1428.148732945539,
    "population": 2485.3794775009155,
    "count": 207
  },
  {
    "id": "e5f5ebe8-faba-44a6-b1bb-09b3706ca2cc",
    "GID_2": "PHL.77.10_1",
    "municipality": "Tandubas, Tawi-Tawi",
    "suggested_area": true,
    "score": 82800,
    "longitude": 120.23055331160609,
    "latitude": 5.322774746950082,
    "facility_name": "",
    "pvout_average_mean": 1499.3345217253036,
    "pvout_average_min": 1489.0767545101148,
    "pvout_average_max": 1509.8923982629453,
    "population": 10199.384642601013,
    "count": 207
  },
  {
    "id": "b2715e62-5b35-4aae-a7e6-1a80953944b1",
    "GID_2": "PHL.73.13_1",
    "municipality": "Pata, Sulu",
    "suggested_area": true,
    "score": 82400,
    "longitude": 121.08888634855454,
    "latitude": 5.8591638563936,
    "facility_name": "",
    "pvout_average_mean": 1470.5569552819684,
    "pvout_average_min": 1461.9236420566597,
    "pvout_average_max": 1480.7463171505233,
    "population": 3567.0815143585205,
    "count": 206
  },
  {
    "id": "e1d0e673-49c4-40ff-8773-f48184c8cef4",
    "GID_2": "PHL.57.3_1",
    "municipality": "Looc, Occidental Mindoro",
    "suggested_area": true,
    "score": 82000,
    "longitude": 120.23888664206186,
    "latitude": 13.802222678009349,
    "facility_name": "",
    "pvout_average_mean": 1580.4517317529226,
    "pvout_average_min": 1561.594999880907,
    "pvout_average_max": 1595.5650819359755,
    "population": 2635.5551357269287,
    "count": 205
  },
  {
    "id": "8e1762ef-215b-4311-a0bf-1c5a7f68fc72",
    "GID_2": "PHL.43.7_1",
    "municipality": "Baybay City, Leyte",
    "suggested_area": true,
    "score": 81600,
    "longitude": 124.77860729670216,
    "latitude": 10.639721377638844,
    "facility_name": "",
    "pvout_average_mean": 1309.9290995931312,
    "pvout_average_min": 1278.1905625287225,
    "pvout_average_max": 1332.6897182090609,
    "population": 4700.294660568237,
    "count": 204
  },
  {
    "id": "50a6385e-4e4a-43aa-bda2-9bd8a8abfa44",
    "GID_2": "PHL.14.7_1",
    "municipality": "Maripipi, Biliran",
    "suggested_area": true,
    "score": 81200,
    "longitude": 124.3299963404978,
    "latitude": 11.815277416564117,
    "facility_name": "",
    "pvout_average_mean": 1460.4691053139425,
    "pvout_average_min": 1453.7615136959282,
    "pvout_average_max": 1469.4654234336515,
    "population": 3775.867443084717,
    "count": 203
  },
  {
    "id": "07140e48-6043-4faa-9da7-2f72f62aacf4",
    "GID_2": "PHL.62.19_1",
    "municipality": "Lucena City, Quezon",
    "suggested_area": true,
    "score": 80800,
    "longitude": 121.66388615000474,
    "latitude": 13.929444952543014,
    "facility_name": "",
    "pvout_average_mean": 1480.8615568125936,
    "pvout_average_min": 1478.839414690981,
    "pvout_average_max": 1482.826649883006,
    "population": 1439.7997727394106,
    "count": 202
  },
  {
    "id": "218f060e-da4b-4020-8377-b685354e3da3",
    "GID_2": "PHL.75.18_1",
    "municipality": "Tago, Surigao del Sur",
    "suggested_area": true,
    "score": 80000,
    "longitude": 126.20499569305227,
    "latitude": 9.016387376816365,
    "facility_name": "",
    "pvout_average_mean": 1383.5325142632462,
    "pvout_average_min": 1361.5184783935547,
    "pvout_average_max": 1399.5559405517579,
    "population": 5222.583589553833,
    "count": 200
  },
  {
    "id": "199f63f1-bb77-4f9c-9bea-308ec17e314e",
    "GID_2": "PHL.29.1_1",
    "municipality": "Baganga, Davao Oriental",
    "suggested_area": true,
    "score": 80000,
    "longitude": 126.55888445974271,
    "latitude": 7.705275726596637,
    "facility_name": "",
    "pvout_average_mean": 1452.5770587057593,
    "pvout_average_min": 1430.6660943603515,
    "pvout_average_max": 1464.1702777099608,
    "population": 1733.2229681015015,
    "count": 200
  },
  {
    "id": "e2e3ab7c-c0c0-4f43-9b3a-b7d8f3eb2f83",
    "GID_2": "PHL.46.7_1",
    "municipality": "Claveria, Masbate",
    "suggested_area": true,
    "score": 79200,
    "longitude": 123.14249675054643,
    "latitude": 12.987222342893457,
    "facility_name": "",
    "pvout_average_mean": 1535.217173165323,
    "pvout_average_min": 1523.2714584812973,
    "pvout_average_max": 1547.3650876440183,
    "population": 7737.579020500183,
    "count": 198
  },
  {
    "id": "dcdfb5d0-ad5f-497a-adb4-1e80cea07237",
    "GID_2": "PHL.81.7_1",
    "municipality": "Mabuhay, Zamboanga Sibugay",
    "suggested_area": true,
    "score": 78800,
    "longitude": 122.85860795968445,
    "latitude": 7.434720059793019,
    "facility_name": "",
    "pvout_average_mean": 1516.7577661326636,
    "pvout_average_min": 1506.9194242990561,
    "pvout_average_max": 1523.7061191307107,
    "population": 7089.666145324707,
    "count": 197
  },
  {
    "id": "381d1dcc-1c83-47a0-9b97-08a95cd15f39",
    "GID_2": "PHL.62.30_1",
    "municipality": "Polillo, Quezon",
    "suggested_area": true,
    "score": 76800,
    "longitude": 121.88805273926495,
    "latitude": 14.82416754266144,
    "facility_name": "",
    "pvout_average_mean": 1398.9923499837787,
    "pvout_average_min": 1381.7368494669597,
    "pvout_average_max": 1417.6705277760823,
    "population": 4313.885238647461,
    "count": 192
  },
  {
    "id": "86d5d6bc-7a17-4bf6-a46d-5f4fdbbd36e0",
    "GID_2": "PHL.22.5_1",
    "municipality": "Ivisan, Capiz",
    "suggested_area": true,
    "score": 76800,
    "longitude": 122.64888580988091,
    "latitude": 11.573888428420547,
    "facility_name": "",
    "pvout_average_mean": 1425.4265698011368,
    "pvout_average_min": 1412.9182376861572,
    "pvout_average_max": 1438.2821076711018,
    "population": 2377.4815859794617,
    "count": 192
  },
  {
    "id": "50749deb-a248-4242-bbd9-69b21d71f39f",
    "GID_2": "PHL.14.3_1",
    "municipality": "Cabucgayan, Biliran",
    "suggested_area": true,
    "score": 76400,
    "longitude": 124.61555179744884,
    "latitude": 11.514443959533638,
    "facility_name": "",
    "pvout_average_mean": 1407.7218014334035,
    "pvout_average_min": 1347.4626247545812,
    "pvout_average_max": 1439.2856317490184,
    "population": 2479.9400272369385,
    "count": 191
  },
  {
    "id": "d5ac52ae-f697-42ab-9392-de8e43bdcc05",
    "GID_2": "PHL.39.13_1",
    "municipality": "Rosario, La Union",
    "suggested_area": true,
    "score": 76000,
    "longitude": 120.4647198974153,
    "latitude": 16.283612587205504,
    "facility_name": "",
    "pvout_average_mean": 1502.5126295658577,
    "pvout_average_min": 1492.2673147101152,
    "pvout_average_max": 1512.0486180355674,
    "population": 3903.853861808777,
    "count": 190
  },
  {
    "id": "24f5f13c-619e-47e7-a87a-96729635f21b",
    "GID_2": "PHL.20.16_1",
    "municipality": "Garchitorena, Camarines Sur",
    "suggested_area": true,
    "score": 76000,
    "longitude": 123.56638549306325,
    "latitude": 13.963889411150381,
    "facility_name": "",
    "pvout_average_mean": 1401.693194789945,
    "pvout_average_min": 1379.3800768400492,
    "pvout_average_max": 1428.6560945209703,
    "population": 6387.89581489563,
    "count": 190
  },
  {
    "id": "deede4b2-4645-4b74-a2f3-74e173126ab2",
    "GID_2": "PHL.43.32_1",
    "municipality": "Palompon, Leyte",
    "suggested_area": true,
    "score": 76000,
    "longitude": 124.39527409573466,
    "latitude": 11.101943789919785,
    "facility_name": "",
    "pvout_average_mean": 1402.0887143672892,
    "pvout_average_min": 1397.130962813528,
    "pvout_average_max": 1409.3904900801808,
    "population": 1975.6104674339294,
    "count": 190
  },
  {
    "id": "48846086-6538-492c-8897-8e8215eb67df",
    "GID_2": "PHL.15.24_1",
    "municipality": "Guindulman, Bohol",
    "suggested_area": true,
    "score": 74800,
    "longitude": 124.4999962817955,
    "latitude": 9.754443235849669,
    "facility_name": "",
    "pvout_average_mean": 1457.0986584482007,
    "pvout_average_min": 1440.3544210342163,
    "pvout_average_max": 1468.1779961407503,
    "population": 2044.271903514862,
    "count": 187
  },
  {
    "id": "6a09135a-f719-4a25-a4a2-0510ceadb40e",
    "GID_2": "PHL.45.2_1",
    "municipality": "Buenavista, Marinduque",
    "suggested_area": true,
    "score": 73600,
    "longitude": 121.95527493827692,
    "latitude": 13.242500225638196,
    "facility_name": "",
    "pvout_average_mean": 1508.2896782695443,
    "pvout_average_min": 1471.2527890412705,
    "pvout_average_max": 1533.5417898426886,
    "population": 3073.415481567383,
    "count": 184
  },
  {
    "id": "292394e9-1205-4a76-aeee-2407026fc55c",
    "GID_2": "PHL.58.7_1",
    "municipality": "Mansalay, Oriental Mindoro",
    "suggested_area": true,
    "score": 73600,
    "longitude": 121.24583073880487,
    "latitude": 12.605277741400467,
    "facility_name": "",
    "pvout_average_mean": 1491.646949476762,
    "pvout_average_min": 1425.1204104216201,
    "pvout_average_max": 1555.1652168605638,
    "population": 5562.73779964447,
    "count": 184
  },
  {
    "id": "3b196777-b4c5-4859-bc40-6f83b7d6d419",
    "GID_2": "PHL.25.54_1",
    "municipality": "Tudela, Cebu",
    "suggested_area": true,
    "score": 73600,
    "longitude": 124.50999627834243,
    "latitude": 10.677221393058156,
    "facility_name": "",
    "pvout_average_mean": 1476.3616322961657,
    "pvout_average_min": 1468.157935101053,
    "pvout_average_max": 1485.6703172766645,
    "population": 1404.4838695526123,
    "count": 184
  },
  {
    "id": "13df2f62-156d-485c-a901-75bd592a6520",
    "GID_2": "PHL.54.11_1",
    "municipality": "Lavezares, Northern Samar",
    "suggested_area": true,
    "score": 73200,
    "longitude": 124.37721854641383,
    "latitude": 12.616666634972258,
    "facility_name": "",
    "pvout_average_mean": 1478.8774920555616,
    "pvout_average_min": 1473.0311499423667,
    "pvout_average_max": 1483.9170368799096,
    "population": 3609.083595275879,
    "count": 183
  },
  {
    "id": "36bbb13f-f88c-4410-8f81-57b7671cd6e4",
    "GID_2": "PHL.54.18_1",
    "municipality": "San Antonio, Northern Samar",
    "suggested_area": true,
    "score": 73200,
    "longitude": 124.24860747971312,
    "latitude": 12.458611014425735,
    "facility_name": "",
    "pvout_average_mean": 1445.4415891447188,
    "pvout_average_min": 1441.1206581657702,
    "pvout_average_max": 1449.4517875629697,
    "population": 5519.073244571686,
    "count": 183
  },
  {
    "id": "96c3de23-87ab-4e65-8b75-c8d8a1a5dfca",
    "GID_2": "PHL.6.5_1",
    "municipality": "Caluya, Antique",
    "suggested_area": true,
    "score": 72000,
    "longitude": 121.57944173471961,
    "latitude": 12.097499754832363,
    "facility_name": "",
    "pvout_average_mean": 1581.9099674178258,
    "pvout_average_min": 1573.1521945529514,
    "pvout_average_max": 1589.4055820041233,
    "population": 2536.6239228248596,
    "count": 180
  },
  {
    "id": "962e61c1-a1cb-4ab8-a8b6-157ca22994f6",
    "GID_2": "PHL.65.12_1",
    "municipality": "San Agustin, Romblon",
    "suggested_area": true,
    "score": 70800,
    "longitude": 122.15444153616981,
    "latitude": 12.632222196923973,
    "facility_name": "",
    "pvout_average_mean": 1455.6671006024858,
    "pvout_average_min": 1438.7985667428054,
    "pvout_average_max": 1471.492977163886,
    "population": 3583.8305797576904,
    "count": 177
  },
  {
    "id": "83774ef3-0aa5-486f-9991-e7f10563d4db",
    "GID_2": "PHL.59.11_1",
    "municipality": "Cuyo, Palawan",
    "suggested_area": true,
    "score": 70800,
    "longitude": 120.68499759912949,
    "latitude": 11.320554990919772,
    "facility_name": "",
    "pvout_average_mean": 1582.7615409305427,
    "pvout_average_min": 1579.7144678837835,
    "pvout_average_max": 1585.705300196416,
    "population": 3214.45103597641,
    "count": 177
  },
  {
    "id": "7d4ae60a-b452-4e01-9001-6a33b236d3c3",
    "GID_2": "PHL.15.8_1",
    "municipality": "Bien Unido, Bohol",
    "suggested_area": true,
    "score": 70800,
    "longitude": 124.44666296687858,
    "latitude": 10.251943440413962,
    "facility_name": "",
    "pvout_average_mean": 1463.4679218651913,
    "pvout_average_min": 1461.784195549744,
    "pvout_average_max": 1464.7927666788048,
    "population": 6059.921312332153,
    "count": 177
  },
  {
    "id": "ea07b0f1-70fc-4097-aa90-3e9611da8ab3",
    "GID_2": "PHL.54.2_1",
    "municipality": "Biri, Northern Samar",
    "suggested_area": true,
    "score": 70000,
    "longitude": 124.28444080067293,
    "latitude": 12.75333335783375,
    "facility_name": "",
    "pvout_average_mean": 1511.0812652526417,
    "pvout_average_min": 1508.1212702287946,
    "pvout_average_max": 1515.7226778738839,
    "population": 4187.519847869873,
    "count": 175
  },
  {
    "id": "29cadc7d-3e70-4745-a598-57e237ee4a88",
    "GID_2": "PHL.25.43_1",
    "municipality": "San Francisco, Cebu",
    "suggested_area": true,
    "score": 69600,
    "longitude": 124.32499634222434,
    "latitude": 10.716110297937442,
    "facility_name": "",
    "pvout_average_mean": 1450.3060147981516,
    "pvout_average_min": 1442.8318741020114,
    "pvout_average_max": 1458.707573550871,
    "population": 3204.442727088928,
    "count": 174
  },
  {
    "id": "ef17fb27-889f-4d5a-bc18-767f7b0475fc",
    "GID_2": "PHL.76.16_1",
    "municipality": "Santa Ignacia, Tarlac",
    "suggested_area": true,
    "score": 68400,
    "longitude": 120.50749766042159,
    "latitude": 15.545001172389636,
    "facility_name": "",
    "pvout_average_mean": 1560.5493640107452,
    "pvout_average_min": 1551.9257162886056,
    "pvout_average_max": 1569.4666226927998,
    "population": 686.4286026954651,
    "count": 171
  },
  {
    "id": "e458c496-8a2c-44e3-acf5-5988ac32b04b",
    "GID_2": "PHL.22.9_1",
    "municipality": "Panay, Capiz",
    "suggested_area": true,
    "score": 67200,
    "longitude": 122.80916353231355,
    "latitude": 11.60805510913592,
    "facility_name": "",
    "pvout_average_mean": 1516.1438428338186,
    "pvout_average_min": 1509.8649379185267,
    "pvout_average_max": 1522.398933773949,
    "population": 4590.876081466675,
    "count": 168
  },
  {
    "id": "ed32cbf5-ebb3-46a7-ac25-43f34190ddcf",
    "GID_2": "PHL.71.7_1",
    "municipality": "Limasawa, Southern Leyte",
    "suggested_area": true,
    "score": 66400,
    "longitude": 125.06332942060763,
    "latitude": 9.96249887695385,
    "facility_name": "",
    "pvout_average_mean": 1442.9298823739882,
    "pvout_average_min": 1438.5880935852786,
    "pvout_average_max": 1445.7147172675075,
    "population": 3829.2408599853516,
    "count": 166
  },
  {
    "id": "4dfb1561-2dc4-42ef-8bf1-893ede48947a",
    "GID_2": "PHL.54.4_1",
    "municipality": "Capul, Northern Samar",
    "suggested_area": true,
    "score": 65600,
    "longitude": 124.14138529451346,
    "latitude": 12.481944357354731,
    "facility_name": "",
    "pvout_average_mean": 1486.164746412751,
    "pvout_average_min": 1482.3960511742569,
    "pvout_average_max": 1489.8171148532774,
    "population": 6470.439256668091,
    "count": 164
  },
  {
    "id": "800bed4d-f58e-4310-a7f2-bbd148892bf5",
    "GID_2": "PHL.72.10_1",
    "municipality": "Palimbang, Sultan Kudarat",
    "suggested_area": true,
    "score": 64000,
    "longitude": 124.06277421054736,
    "latitude": 6.385830739617266,
    "facility_name": "",
    "pvout_average_mean": 1351.7262436862618,
    "pvout_average_min": 1289.5836273193358,
    "pvout_average_max": 1402.9209190368651,
    "population": 8688.413398742676,
    "count": 160
  },
  {
    "id": "3a7f749b-7309-49dd-8c50-d10099ea711f",
    "GID_2": "PHL.36.23_1",
    "municipality": "Lambunao, Iloilo",
    "suggested_area": true,
    "score": 62800,
    "longitude": 122.33916369460604,
    "latitude": 11.2155549477457,
    "facility_name": "",
    "pvout_average_mean": 1215.5804635897837,
    "pvout_average_min": 1093.8795166015625,
    "pvout_average_max": 1328.523610108977,
    "population": 1056.7084383964539,
    "count": 157
  },
  {
    "id": "e3be5ff1-37b0-46e3-97bb-8c2431274cc8",
    "GID_2": "PHL.67.3_1",
    "municipality": "Kiamba, Sarangani",
    "suggested_area": true,
    "score": 62400,
    "longitude": 124.53749626884647,
    "latitude": 6.019441700075171,
    "facility_name": "",
    "pvout_average_mean": 1264.2299026384642,
    "pvout_average_min": 1113.2351375482021,
    "pvout_average_max": 1398.6777601975662,
    "population": 3927.569564819336,
    "count": 156
  },
  {
    "id": "f0a385b7-0010-4b1d-94b3-dfb4953cbd40",
    "GID_2": "PHL.46.16_1",
    "municipality": "Pio V. Corpuz, Masbate",
    "suggested_area": true,
    "score": 61600,
    "longitude": 124.02805200031499,
    "latitude": 11.940833023747238,
    "facility_name": "",
    "pvout_average_mean": 1548.6502470772577,
    "pvout_average_min": 1542.1046618176745,
    "pvout_average_max": 1553.8587004426238,
    "population": 3517.3669290542603,
    "count": 154
  },
  {
    "id": "70785f7c-1f94-4c3b-babe-2794b17b84f6",
    "GID_2": "PHL.14.4_1",
    "municipality": "Caibiran, Biliran",
    "suggested_area": true,
    "score": 61200,
    "longitude": 124.57221847907884,
    "latitude": 11.59499954821216,
    "facility_name": "",
    "pvout_average_mean": 1383.7828466553724,
    "pvout_average_min": 1351.7448060278798,
    "pvout_average_max": 1408.9360016467524,
    "population": 3946.941234588623,
    "count": 153
  },
  {
    "id": "72ef0409-b6bf-4077-8808-ff30e60e65d0",
    "GID_2": "PHL.29.9_1",
    "municipality": "Mati City, Davao Oriental",
    "suggested_area": true,
    "score": 61200,
    "longitude": 126.30249565938477,
    "latitude": 6.936108743660577,
    "facility_name": "",
    "pvout_average_mean": 1504.9968759374717,
    "pvout_average_min": 1483.0560222949857,
    "pvout_average_max": 1521.28298132404,
    "population": 3833.9487228393555,
    "count": 153
  },
  {
    "id": "4f8d5b54-2556-4d32-a455-5756baf96916",
    "GID_2": "PHL.68.3_1",
    "municipality": "Lazi, Siquijor",
    "suggested_area": true,
    "score": 60800,
    "longitude": 123.61555214275229,
    "latitude": 9.103887412794759,
    "facility_name": "",
    "pvout_average_mean": 1557.9783759267734,
    "pvout_average_min": 1555.2054724442332,
    "pvout_average_max": 1560.0985653525904,
    "population": 1401.4380493164062,
    "count": 152
  },
  {
    "id": "094aa9b5-7274-46bc-b173-59a944680863",
    "GID_2": "PHL.48.5_1",
    "municipality": "Clarin, Misamis Occidental",
    "suggested_area": true,
    "score": 60400,
    "longitude": 123.85749650365356,
    "latitude": 8.23999816868919,
    "facility_name": "",
    "pvout_average_mean": 1510.4952491361416,
    "pvout_average_min": 1506.625029102856,
    "pvout_average_max": 1516.336796034251,
    "population": 3257.484564781189,
    "count": 151
  },
  {
    "id": "1d4cd793-f3ed-4051-a87b-3370575553fb",
    "GID_2": "PHL.73.15_1",
    "municipality": "Siasi, Sulu",
    "suggested_area": true,
    "score": 60400,
    "longitude": 120.82666421687757,
    "latitude": 5.521941495511063,
    "facility_name": "",
    "pvout_average_mean": 1494.0654961251942,
    "pvout_average_min": 1482.7480767862687,
    "pvout_average_max": 1501.5717862362894,
    "population": 11181.11054801941,
    "count": 151
  },
  {
    "id": "02d1bbce-b350-4d44-987a-965e61e4c6cb",
    "GID_2": "PHL.45.5_1",
    "municipality": "Santa Cruz, Marinduque",
    "suggested_area": true,
    "score": 60000,
    "longitude": 121.93805272199957,
    "latitude": 13.537222569044786,
    "facility_name": "",
    "pvout_average_mean": 1477.4761470511305,
    "pvout_average_min": 1472.610262044271,
    "pvout_average_max": 1482.9248852539063,
    "population": 1292.3278594017029,
    "count": 150
  },
  {
    "id": "301d8294-d5a6-4b66-889d-824267fc8fff",
    "GID_2": "PHL.62.25_1",
    "municipality": "Panukulan, Quezon",
    "suggested_area": true,
    "score": 59200,
    "longitude": 121.9127749529504,
    "latitude": 15.046112078365367,
    "facility_name": "",
    "pvout_average_mean": 1344.8213994829573,
    "pvout_average_min": 1331.97543252481,
    "pvout_average_max": 1363.8703811233108,
    "population": 4070.3899993896484,
    "count": 148
  },
  {
    "id": "340c1155-a9b0-428d-9573-213d5e5a00a0",
    "GID_2": "PHL.41.20_1",
    "municipality": "Sultan Naga Dimaporo, Lanao del Norte",
    "suggested_area": true,
    "score": 59200,
    "longitude": 123.62721880539246,
    "latitude": 7.832220223238713,
    "facility_name": "",
    "pvout_average_mean": 1470.3964954623875,
    "pvout_average_min": 1466.663519781989,
    "pvout_average_max": 1474.4378216717694,
    "population": 2462.3612084388733,
    "count": 148
  },
  {
    "id": "1fdf8597-1de4-4fbc-8878-0499a3638334",
    "GID_2": "PHL.75.9_1",
    "municipality": "Hinatuan, Surigao del Sur",
    "suggested_area": true,
    "score": 58400,
    "longitude": 126.35999563952959,
    "latitude": 8.531387177391842,
    "facility_name": "",
    "pvout_average_mean": 1425.2043531868312,
    "pvout_average_min": 1416.759901908979,
    "pvout_average_max": 1430.539010661922,
    "population": 4390.0902099609375,
    "count": 146
  },
  {
    "id": "4fc32d3d-be7a-4cd3-8b19-89f6c66e74f5",
    "GID_2": "PHL.48.16_1",
    "municipality": "Tangub City, Misamis Occidental",
    "suggested_area": true,
    "score": 58000,
    "longitude": 123.78027430809676,
    "latitude": 8.082775881820076,
    "facility_name": "",
    "pvout_average_mean": 1451.782591135387,
    "pvout_average_min": 1447.8411200161638,
    "pvout_average_max": 1455.430435075431,
    "population": 3306.1363563537598,
    "count": 145
  },
  {
    "id": "eab05a0c-31b8-4130-932d-04655ad4a720",
    "GID_2": "PHL.61.19_1",
    "municipality": "Dasol, Pangasinan",
    "suggested_area": true,
    "score": 57600,
    "longitude": 119.84527566686766,
    "latitude": 15.96889023557528,
    "facility_name": "",
    "pvout_average_mean": 1579.2251200333258,
    "pvout_average_min": 1559.4679446750217,
    "pvout_average_max": 1593.732560051812,
    "population": 634.3122763633728,
    "count": 144
  },
  {
    "id": "c1a450bd-e3fe-4a1a-b22a-60f3cf1206a4",
    "GID_2": "PHL.59.2_1",
    "municipality": "Agutaya, Palawan",
    "suggested_area": true,
    "score": 57600,
    "longitude": 120.80471978001071,
    "latitude": 11.45333282329476,
    "facility_name": "",
    "pvout_average_mean": 1541.1791898253077,
    "pvout_average_min": 1535.4425201416016,
    "pvout_average_max": 1546.2329720391167,
    "population": 4466.8323402404785,
    "count": 144
  },
  {
    "id": "8d58aaac-68df-472e-8ea7-bc1b026648e4",
    "GID_2": "PHL.30.1_1",
    "municipality": "Basilisa, Dinagat Islands",
    "suggested_area": true,
    "score": 56800,
    "longitude": 125.53721814586116,
    "latitude": 10.074998923211785,
    "facility_name": "",
    "pvout_average_mean": 1371.6170052127889,
    "pvout_average_min": 1369.1653794839349,
    "pvout_average_max": 1374.2889593419895,
    "population": 4709.224397659302,
    "count": 142
  },
  {
    "id": "8ad2d717-18a1-4c4b-adac-8ee74c3e3556",
    "GID_2": "PHL.77.9_1",
    "municipality": "South Ubian, Tawi-Tawi",
    "suggested_area": true,
    "score": 56400,
    "longitude": 120.64388650221436,
    "latitude": 5.233608043619785,
    "facility_name": "",
    "pvout_average_mean": 1525.2380535553314,
    "pvout_average_min": 1522.9524159532912,
    "pvout_average_max": 1527.0350618835882,
    "population": 4066.463843345642,
    "count": 141
  },
  {
    "id": "c4d53539-8444-402d-a1f3-5e1f709fc226",
    "GID_2": "PHL.6.6_1",
    "municipality": "Culasi, Antique",
    "suggested_area": true,
    "score": 56000,
    "longitude": 121.92610828167963,
    "latitude": 11.476943944114327,
    "facility_name": "",
    "pvout_average_mean": 1458.5819268189573,
    "pvout_average_min": 1451.7224766322545,
    "pvout_average_max": 1463.0585675920759,
    "population": 3434.9405031204224,
    "count": 140
  },
  {
    "id": "7053f3ab-be10-49f1-aa01-60e9e6994492",
    "GID_2": "PHL.43.1_1",
    "municipality": "Abuyog, Leyte",
    "suggested_area": true,
    "score": 56000,
    "longitude": 125.0499960918784,
    "latitude": 10.714999186369463,
    "facility_name": "",
    "pvout_average_mean": 1313.788532291965,
    "pvout_average_min": 1291.435293143136,
    "pvout_average_max": 1343.154473876953,
    "population": 4665.308550834656,
    "count": 140
  },
  {
    "id": "230f4d0c-e8ed-4f62-8720-32d10f489711",
    "GID_2": "PHL.59.14_1",
    "municipality": "Linapacan, Palawan",
    "suggested_area": true,
    "score": 55200,
    "longitude": 119.71805348857416,
    "latitude": 11.462499493730592,
    "facility_name": "",
    "pvout_average_mean": 1577.630618774333,
    "pvout_average_min": 1560.7928864852242,
    "pvout_average_max": 1591.8785621532495,
    "population": 3574.6175212860107,
    "count": 138
  },
  {
    "id": "f8296c4f-b1d6-4ea3-8dbf-9477e05d69f2",
    "GID_2": "PHL.69.5_1",
    "municipality": "Castilla, Sorsogon",
    "suggested_area": true,
    "score": 54800,
    "longitude": 123.8430520641969,
    "latitude": 12.901944530051022,
    "facility_name": "",
    "pvout_average_mean": 1487.5107074375578,
    "pvout_average_min": 1482.6777726890398,
    "pvout_average_max": 1491.0304721358918,
    "population": 4012.6812686920166,
    "count": 137
  },
  {
    "id": "37191788-d42b-4ed7-8676-b1d4dc09742e",
    "GID_2": "PHL.9.3_1",
    "municipality": "Hadji Mohammad Ajul, Basilan",
    "suggested_area": true,
    "score": 54800,
    "longitude": 122.39610811938714,
    "latitude": 6.749997556023746,
    "facility_name": "",
    "pvout_average_mean": 1486.4829448308778,
    "pvout_average_min": 1480.3397403911952,
    "pvout_average_max": 1492.8430558921648,
    "population": 3565.32776927948,
    "count": 137
  },
  {
    "id": "c697ef1b-34ae-4e5e-aa3c-af8dc6c1f13e",
    "GID_2": "PHL.80.24_1",
    "municipality": "Tabina, Zamboanga del Sur",
    "suggested_area": true,
    "score": 54400,
    "longitude": 123.4088855474492,
    "latitude": 7.467220073156246,
    "facility_name": "",
    "pvout_average_mean": 1544.6032962536801,
    "pvout_average_min": 1538.3605212043312,
    "pvout_average_max": 1553.2686767578125,
    "population": 2908.554323196411,
    "count": 136
  },
  {
    "id": "b578b6af-9bd9-4aa9-a6e1-4f435c88ac5f",
    "GID_2": "PHL.13.14_1",
    "municipality": "Tublay, Benguet",
    "suggested_area": true,
    "score": 52000,
    "longitude": 120.60388651602666,
    "latitude": 16.545279361466125,
    "facility_name": "",
    "pvout_average_mean": 1508.3764210373947,
    "pvout_average_min": 1485.218724646935,
    "pvout_average_max": 1531.9370342548077,
    "population": 1155.9988145828247,
    "count": 130
  },
  {
    "id": "c6060230-5227-498b-b720-7057922a2d45",
    "GID_2": "PHL.19.12_1",
    "municipality": "Vinzons, Camarines Norte",
    "suggested_area": true,
    "score": 51600,
    "longitude": 122.94610792947003,
    "latitude": 14.480834068154318,
    "facility_name": "",
    "pvout_average_mean": 1509.7306813491014,
    "pvout_average_min": 1499.1870088799055,
    "pvout_average_max": 1516.7561347429144,
    "population": 4964.690311431885,
    "count": 129
  },
  {
    "id": "e7628b70-30dd-4139-81d1-06819e4d2676",
    "GID_2": "PHL.65.15_1",
    "municipality": "San Jose, Romblon",
    "suggested_area": true,
    "score": 50800,
    "longitude": 121.93999716577258,
    "latitude": 12.095833087480393,
    "facility_name": "",
    "pvout_average_mean": 1549.0631285282307,
    "pvout_average_min": 1541.6946540892593,
    "pvout_average_max": 1556.6038972148745,
    "population": 3952.676830291748,
    "count": 127
  },
  {
    "id": "634d55ad-413c-4799-a9f9-52147773bbce",
    "GID_2": "PHL.80.22_1",
    "municipality": "San Pablo, Zamboanga del Sur",
    "suggested_area": true,
    "score": 50800,
    "longitude": 123.48110774473254,
    "latitude": 7.708886839192583,
    "facility_name": "",
    "pvout_average_mean": 1526.1030789049748,
    "pvout_average_min": 1519.5292911078986,
    "pvout_average_max": 1531.6395859605684,
    "population": 2036.2650299072266,
    "count": 127
  },
  {
    "id": "f1484b95-56bc-48c8-bf58-eaf088389a32",
    "GID_2": "PHL.23.8_1",
    "municipality": "San Andres, Catanduanes",
    "suggested_area": true,
    "score": 50000,
    "longitude": 124.07777420536775,
    "latitude": 13.695833745375301,
    "facility_name": "",
    "pvout_average_mean": 1379.5679997414732,
    "pvout_average_min": 1371.630685546875,
    "pvout_average_max": 1386.64093359375,
    "population": 3119.337413787842,
    "count": 125
  },
  {
    "id": "35f8e6b3-611c-45df-a052-8ab7889c8ddc",
    "GID_2": "PHL.58.3_1",
    "municipality": "Bongabong, Oriental Mindoro",
    "suggested_area": true,
    "score": 50000,
    "longitude": 121.50305287220839,
    "latitude": 12.736111128530066,
    "facility_name": "",
    "pvout_average_mean": 1562.9943925130185,
    "pvout_average_min": 1555.406640625,
    "pvout_average_max": 1569.78875390625,
    "population": 1464.1773881912231,
    "count": 125
  },
  {
    "id": "4af34279-f2fc-4d77-859d-c8ba030e1d37",
    "GID_2": "PHL.57.4_1",
    "municipality": "Lubang, Occidental Mindoro",
    "suggested_area": true,
    "score": 48800,
    "longitude": 120.04333115403313,
    "latitude": 13.892222715015697,
    "facility_name": "",
    "pvout_average_mean": 1588.0192613261572,
    "pvout_average_min": 1580.4365174340421,
    "pvout_average_max": 1593.8699480900998,
    "population": 1192.695053100586,
    "count": 122
  },
  {
    "id": "849a3d45-7daa-46e6-be6b-0f1cec4a3c72",
    "GID_2": "PHL.55.24_1",
    "municipality": "San Antonio, Nueva Ecija",
    "suggested_area": true,
    "score": 48400,
    "longitude": 120.8074975568293,
    "latitude": 15.401390002228272,
    "facility_name": "",
    "pvout_average_mean": 1530.7636355944396,
    "pvout_average_min": 1524.9940528554364,
    "pvout_average_max": 1538.5176880891659,
    "population": 1385.8860330581665,
    "count": 121
  },
  {
    "id": "c6fb6434-f9bb-40b4-8cb3-51e5e820da94",
    "GID_2": "PHL.69.15_1",
    "municipality": "Sorsogon City, Sorsogon",
    "suggested_area": true,
    "score": 48000,
    "longitude": 123.9405520305294,
    "latitude": 13.11638906267251,
    "facility_name": "",
    "pvout_average_mean": 1364.2769826821095,
    "pvout_average_min": 1321.2551798502604,
    "pvout_average_max": 1416.9051849365235,
    "population": 3606.562660217285,
    "count": 120
  },
  {
    "id": "0353797e-3c84-41be-844a-d62c659ab8c1",
    "GID_2": "PHL.67.6_1",
    "municipality": "Malapatan, Sarangani",
    "suggested_area": true,
    "score": 48000,
    "longitude": 125.26666268372841,
    "latitude": 5.930552774636518,
    "facility_name": "",
    "pvout_average_mean": 1285.7708075574385,
    "pvout_average_min": 1169.3145975748698,
    "pvout_average_max": 1392.9048268636068,
    "population": 4663.8325119018555,
    "count": 120
  },
  {
    "id": "f12a6904-9ddc-4d24-8322-4a05dca7befb",
    "GID_2": "PHL.44.26_1",
    "municipality": "Parang, Maguindanao",
    "suggested_area": true,
    "score": 46800,
    "longitude": 124.0699964302757,
    "latitude": 7.374442257229933,
    "facility_name": "",
    "pvout_average_mean": 1563.9072352519975,
    "pvout_average_min": 1558.5716218866853,
    "pvout_average_max": 1568.9734554453794,
    "population": 2720.0194792747498,
    "count": 117
  },
  {
    "id": "09241da2-aa81-4ab1-83de-c5a34cd41934",
    "GID_2": "PHL.21.1_1",
    "municipality": "Catarman, Camiguin",
    "suggested_area": true,
    "score": 46400,
    "longitude": 124.6341629021334,
    "latitude": 9.206943010726292,
    "facility_name": "",
    "pvout_average_mean": 1401.5843689666417,
    "pvout_average_min": 1360.2727482236664,
    "pvout_average_max": 1442.6304100299703,
    "population": 3511.600748062134,
    "count": 116
  },
  {
    "id": "b3a63ebc-8ec0-43ce-a3a0-b672b2bfea25",
    "GID_2": "PHL.77.4_1",
    "municipality": "Panglima Sugala, Tawi-Tawi",
    "suggested_area": true,
    "score": 46400,
    "longitude": 120.1227755710448,
    "latitude": 5.192496915604409,
    "facility_name": "",
    "pvout_average_mean": 1428.844351332249,
    "pvout_average_min": 1402.0848693847656,
    "pvout_average_max": 1456.7364680849273,
    "population": 5450.3527574539185,
    "count": 116
  },
  {
    "id": "c9586772-e88e-494d-959a-26bafbe47a2f",
    "GID_2": "PHL.65.6_1",
    "municipality": "Corcuera, Romblon",
    "suggested_area": true,
    "score": 46000,
    "longitude": 122.08777489252365,
    "latitude": 12.831666723376312,
    "facility_name": "",
    "pvout_average_mean": 1572.5902001173372,
    "pvout_average_min": 1570.7210226307745,
    "pvout_average_max": 1574.2052288552989,
    "population": 2458.0680351257324,
    "count": 115
  },
  {
    "id": "2c7b49f7-323e-47f9-868b-f95ad1d95a1c",
    "GID_2": "PHL.54.8_1",
    "municipality": "Laoang, Northern Samar",
    "suggested_area": true,
    "score": 46000,
    "longitude": 124.99555166623404,
    "latitude": 12.645833313631723,
    "facility_name": "",
    "pvout_average_mean": 1468.2423931566425,
    "pvout_average_min": 1465.6338601817256,
    "pvout_average_max": 1471.3317032523778,
    "population": 3252.9688987731934,
    "count": 115
  },
  {
    "id": "16b2c2f2-8627-4dd9-a54e-d58e6e697dac",
    "GID_2": "PHL.31.19_1",
    "municipality": "Salcedo, Eastern Samar",
    "suggested_area": true,
    "score": 46000,
    "longitude": 125.67388476533579,
    "latitude": 11.179443821786363,
    "facility_name": "",
    "pvout_average_mean": 1468.8956759687787,
    "pvout_average_min": 1464.0585778277853,
    "pvout_average_max": 1472.9165591032609,
    "population": 1589.7935037612915,
    "count": 115
  },
  {
    "id": "7069dc8d-1842-4aa4-9bee-6a27f1e62c2e",
    "GID_2": "PHL.79.3_1",
    "municipality": "Dapitan City, Zamboanga del Norte",
    "suggested_area": true,
    "score": 46000,
    "longitude": 123.41527443413196,
    "latitude": 8.85860953416326,
    "facility_name": "",
    "pvout_average_mean": 1505.7066612810772,
    "pvout_average_min": 1498.54780804178,
    "pvout_average_max": 1513.373431131114,
    "population": 3213.6546669006348,
    "count": 115
  },
  {
    "id": "3e6151b8-b183-47d0-a59f-3d88d664f7db",
    "GID_2": "PHL.44.10_1",
    "municipality": "Datu Odin Sinsuat, Maguindanao",
    "suggested_area": true,
    "score": 45600,
    "longitude": 124.15221862410596,
    "latitude": 7.172219951856998,
    "facility_name": "",
    "pvout_average_mean": 1512.0584244316235,
    "pvout_average_min": 1493.4881420470122,
    "pvout_average_max": 1526.6233916700933,
    "population": 1326.060070991516,
    "count": 114
  },
  {
    "id": "eb24faa9-3c38-4ba6-8156-95794f66d343",
    "GID_2": "PHL.59.15_1",
    "municipality": "Magsaysay, Palawan",
    "suggested_area": true,
    "score": 44800,
    "longitude": 120.93888640035068,
    "latitude": 10.98722152052589,
    "facility_name": "",
    "pvout_average_mean": 1572.8070937894038,
    "pvout_average_min": 1566.2569274902344,
    "pvout_average_max": 1579.315071105957,
    "population": 1560.453652381897,
    "count": 112
  },
  {
    "id": "55ab4cbb-5c41-4916-84d1-863b3918fca3",
    "GID_2": "PHL.49.14_1",
    "municipality": "Laguindingan, Misamis Oriental",
    "suggested_area": true,
    "score": 44800,
    "longitude": 124.45971851792595,
    "latitude": 8.624164993319564,
    "facility_name": "",
    "pvout_average_mean": 1552.4507814679812,
    "pvout_average_min": 1545.8817661830358,
    "pvout_average_max": 1560.585917881557,
    "population": 1452.3196268081665,
    "count": 112
  },
  {
    "id": "ed0ad481-638f-4a03-b603-048e3f2b60fd",
    "GID_2": "PHL.79.12_1",
    "municipality": "Liloy, Zamboanga del Norte",
    "suggested_area": true,
    "score": 44800,
    "longitude": 122.66444136006501,
    "latitude": 8.160275913686654,
    "facility_name": "",
    "pvout_average_mean": 1470.380715159982,
    "pvout_average_min": 1468.412338256836,
    "pvout_average_max": 1472.8574861798968,
    "population": 1759.7137336730957,
    "count": 112
  },
  {
    "id": "b22657d7-8dce-44b1-be71-ac693a11da02",
    "GID_2": "PHL.71.6_1",
    "municipality": "Liloan, Southern Leyte",
    "suggested_area": true,
    "score": 44400,
    "longitude": 125.08888496733866,
    "latitude": 10.211665646073277,
    "facility_name": "",
    "pvout_average_mean": 1331.5618875772716,
    "pvout_average_min": 1310.810070690808,
    "pvout_average_max": 1352.1289414414414,
    "population": 3194.522904396057,
    "count": 111
  },
  {
    "id": "a93dc4d3-990d-4aee-bcd1-e434006a84bb",
    "GID_2": "PHL.38.6_1",
    "municipality": "Tabuk City, Kalinga",
    "suggested_area": true,
    "score": 44000,
    "longitude": 121.33110848713558,
    "latitude": 17.40833527189571,
    "facility_name": "",
    "pvout_average_mean": 1454.2859381808148,
    "pvout_average_min": 1413.554129305753,
    "pvout_average_max": 1480.6801214044744,
    "population": 781.9605937600136,
    "count": 110
  },
  {
    "id": "a1079d01-199d-49d5-af76-a3af9f9eb22a",
    "GID_2": "PHL.20.31_1",
    "municipality": "Presentacion, Camarines Sur",
    "suggested_area": true,
    "score": 44000,
    "longitude": 123.7102743322683,
    "latitude": 13.71277819678699,
    "facility_name": "",
    "pvout_average_mean": 1415.3763994369306,
    "pvout_average_min": 1408.0753861860796,
    "pvout_average_max": 1425.3417602539062,
    "population": 3881.1485023498535,
    "count": 110
  },
  {
    "id": "8ccdd42d-de78-4cde-8988-072248bde190",
    "GID_2": "PHL.73.7_1",
    "municipality": "Maimbung, Sulu",
    "suggested_area": true,
    "score": 44000,
    "longitude": 121.01721970663492,
    "latitude": 5.926386106256581,
    "facility_name": "",
    "pvout_average_mean": 1448.4094872721716,
    "pvout_average_min": 1443.0031183416193,
    "pvout_average_max": 1453.894374778054,
    "population": 5279.57960319519,
    "count": 110
  },
  {
    "id": "c93a0528-4764-4350-8d32-fe609cda30f5",
    "GID_2": "PHL.39.12_1",
    "municipality": "Pugo, La Union",
    "suggested_area": true,
    "score": 43600,
    "longitude": 120.47999766991755,
    "latitude": 16.347779280256326,
    "facility_name": "",
    "pvout_average_mean": 1374.8556859878684,
    "pvout_average_min": 1315.5498774817231,
    "pvout_average_max": 1432.922516709074,
    "population": 843.4184594154358,
    "count": 109
  },
  {
    "id": "730d0745-1203-4dc1-b508-b972f0aa72a7",
    "GID_2": "PHL.44.9_1",
    "municipality": "Datu Blah T. Sinsuat, Maguindanao",
    "suggested_area": true,
    "score": 43600,
    "longitude": 124.06277421054736,
    "latitude": 7.136664381681537,
    "facility_name": "",
    "pvout_average_mean": 1466.8754800538954,
    "pvout_average_min": 1423.791405354071,
    "pvout_average_max": 1497.823124596832,
    "population": 816.5101237297058,
    "count": 109
  },
  {
    "id": "5b2bf866-760e-4577-9e1f-51775f80677a",
    "GID_2": "PHL.65.17_1",
    "municipality": "Santa Maria, Romblon",
    "suggested_area": true,
    "score": 42800,
    "longitude": 122.10555266416263,
    "latitude": 12.44305545247402,
    "facility_name": "",
    "pvout_average_mean": 1487.8872044447774,
    "pvout_average_min": 1470.6978497371495,
    "pvout_average_max": 1502.1844721999123,
    "population": 2315.6946926116943,
    "count": 107
  },
  {
    "id": "c81c14e4-757b-49ec-9f38-f77ba8303cd8",
    "GID_2": "PHL.15.29_1",
    "municipality": "Loay, Bohol",
    "suggested_area": true,
    "score": 42400,
    "longitude": 124.03666310845261,
    "latitude": 9.597220948979128,
    "facility_name": "",
    "pvout_average_mean": 1432.2489723764643,
    "pvout_average_min": 1425.5154315300708,
    "pvout_average_max": 1443.2401814010907,
    "population": 1300.3937273025513,
    "count": 106
  },
  {
    "id": "a7a8d378-a293-4770-8469-a028aea203d7",
    "GID_2": "PHL.77.8_1",
    "municipality": "Sitangkai, Tawi-Tawi",
    "suggested_area": true,
    "score": 42400,
    "longitude": 119.40555359648279,
    "latitude": 4.876107896621204,
    "facility_name": "",
    "pvout_average_mean": 1460.2955655655776,
    "pvout_average_min": 1452.0649471642837,
    "pvout_average_max": 1466.8371812352593,
    "population": 3347.768449783325,
    "count": 106
  },
  {
    "id": "3e74efb1-19e9-44b8-8453-e2e50762c1a0",
    "GID_2": "PHL.35.27_1",
    "municipality": "Santiago, Ilocos Sur",
    "suggested_area": true,
    "score": 41600,
    "longitude": 120.42221991209088,
    "latitude": 17.275557439522146,
    "facility_name": "",
    "pvout_average_mean": 1671.3885703630601,
    "pvout_average_min": 1667.4579397348257,
    "pvout_average_max": 1674.8609736515925,
    "population": 1547.5371723175049,
    "count": 104
  },
  {
    "id": "8651b662-7ada-4c94-9272-e6edf3420c55",
    "GID_2": "PHL.46.11_1",
    "municipality": "Masbate City, Masbate",
    "suggested_area": true,
    "score": 41600,
    "longitude": 123.55888549565306,
    "latitude": 12.45666656918177,
    "facility_name": "",
    "pvout_average_mean": 1479.9212798960482,
    "pvout_average_min": 1474.1629298283503,
    "pvout_average_max": 1484.7166231595552,
    "population": 3565.1591835021973,
    "count": 104
  },
  {
    "id": "69706aae-3e40-482f-95e5-d14902e9fa05",
    "GID_2": "PHL.52.11_1",
    "municipality": "Guihulngan City, Negros Oriental",
    "suggested_area": true,
    "score": 41600,
    "longitude": 123.32583002057336,
    "latitude": 10.275832339125524,
    "facility_name": "",
    "pvout_average_mean": 1442.6473959609352,
    "pvout_average_min": 1436.3102452204778,
    "pvout_average_max": 1449.8634655292217,
    "population": 2318.7680072784424,
    "count": 104
  },
  {
    "id": "db18a839-708a-4fdb-ac23-f65fdcc7c9f4",
    "GID_2": "PHL.81.1_1",
    "municipality": "Alicia, Zamboanga Sibugay",
    "suggested_area": true,
    "score": 41600,
    "longitude": 122.88888572700708,
    "latitude": 7.534997878803218,
    "facility_name": "",
    "pvout_average_mean": 1519.5228460703308,
    "pvout_average_min": 1515.2816889836238,
    "pvout_average_max": 1523.3241894061748,
    "population": 2134.22123336792,
    "count": 104
  },
  {
    "id": "b73a130c-4222-4512-babb-34a3e5a26c12",
    "GID_2": "PHL.9.9_1",
    "municipality": "Tipo-Tipo, Basilan",
    "suggested_area": true,
    "score": 41600,
    "longitude": 122.20444151890443,
    "latitude": 6.54583080540684,
    "facility_name": "",
    "pvout_average_mean": 1451.213734259973,
    "pvout_average_min": 1439.6295764629658,
    "pvout_average_max": 1456.848672720102,
    "population": 1204.0109148025513,
    "count": 104
  },
  {
    "id": "2f4dcafc-c98f-4ae8-a183-baa3e133bc1c",
    "GID_2": "PHL.77.2_1",
    "municipality": "Languyan, Tawi-Tawi",
    "suggested_area": true,
    "score": 41600,
    "longitude": 120.21805331592243,
    "latitude": 5.343885866741762,
    "facility_name": "",
    "pvout_average_mean": 1458.8107498126353,
    "pvout_average_min": 1442.2948514498198,
    "pvout_average_max": 1474.0086059570312,
    "population": 4458.626977920532,
    "count": 104
  },
  {
    "id": "3d23e3e5-169a-4f6e-8733-fc2f5c25deb2",
    "GID_2": "PHL.5.1_1",
    "municipality": "Bacacay, Albay",
    "suggested_area": true,
    "score": 41200,
    "longitude": 123.86527427874562,
    "latitude": 13.350278047732218,
    "facility_name": "",
    "pvout_average_mean": 1422.682700519901,
    "pvout_average_min": 1417.1523307133648,
    "pvout_average_max": 1428.9608035782007,
    "population": 5162.069902420044,
    "count": 103
  },
  {
    "id": "dcbd24cd-307f-46bb-a304-2c319f59e121",
    "GID_2": "PHL.52.2_1",
    "municipality": "Ayungon, Negros Oriental",
    "suggested_area": true,
    "score": 41200,
    "longitude": 123.13333008704508,
    "latitude": 9.833609935068216,
    "facility_name": "",
    "pvout_average_mean": 1390.4250728273855,
    "pvout_average_min": 1386.9532956614078,
    "pvout_average_max": 1393.935791015625,
    "population": 961.3788785934449,
    "count": 103
  },
  {
    "id": "537e4802-562f-42c9-a8c2-653793c53fd3",
    "GID_2": "PHL.42.32_1",
    "municipality": "Picong, Lanao del Sur",
    "suggested_area": true,
    "score": 41200,
    "longitude": 123.81777429514773,
    "latitude": 7.699997946648717,
    "facility_name": "",
    "pvout_average_mean": 1440.91010419228,
    "pvout_average_min": 1422.4891321867415,
    "pvout_average_max": 1455.0282657956614,
    "population": 1112.0284178256989,
    "count": 103
  },
  {
    "id": "9cbdad9e-41a8-4f7f-a851-bc908f7afa8e",
    "GID_2": "PHL.77.3_1",
    "municipality": "Mapun, Tawi-Tawi",
    "suggested_area": true,
    "score": 41200,
    "longitude": 118.4152761606513,
    "latitude": 7.171664396073006,
    "facility_name": "",
    "pvout_average_mean": 1432.0286700003376,
    "pvout_average_min": 1418.404074067051,
    "pvout_average_max": 1447.053053179991,
    "population": 4712.555379390717,
    "count": 103
  },
  {
    "id": "b0a8517e-1f3b-4eeb-ab07-59a9e8bdda45",
    "GID_2": "PHL.31.5_1",
    "municipality": "Can-Avid, Eastern Samar",
    "suggested_area": true,
    "score": 40800,
    "longitude": 125.47305150135173,
    "latitude": 12.021110834533765,
    "facility_name": "",
    "pvout_average_mean": 1474.636341985745,
    "pvout_average_min": 1468.6414723115809,
    "pvout_average_max": 1477.6865521599266,
    "population": 2313.767265319824,
    "count": 102
  },
  {
    "id": "6007c9b0-890b-45fc-80df-6ee88769c68f",
    "GID_2": "PHL.74.15_1",
    "municipality": "San Francisco, Surigao del Norte",
    "suggested_area": true,
    "score": 40800,
    "longitude": 125.39971819334096,
    "latitude": 9.757498792661613,
    "facility_name": "",
    "pvout_average_mean": 1273.3702530206415,
    "pvout_average_min": 1257.6056386910234,
    "pvout_average_max": 1287.6386012657015,
    "population": 2902.924437522888,
    "count": 102
  },
  {
    "id": "125a5080-a2f2-4653-815a-026a513eeb63",
    "GID_2": "PHL.71.5_1",
    "municipality": "Libagon, Southern Leyte",
    "suggested_area": true,
    "score": 40400,
    "longitude": 125.02888498805711,
    "latitude": 10.353332370992101,
    "facility_name": "",
    "pvout_average_mean": 1221.8322148977945,
    "pvout_average_min": 1157.8822069829052,
    "pvout_average_max": 1270.4191652807858,
    "population": 3178.6479568481445,
    "count": 101
  },
  {
    "id": "a8c65185-a0e9-4ea3-b7cb-0c9eb17dcbdb",
    "GID_2": "PHL.59.5_1",
    "municipality": "Bataraza, Palawan",
    "suggested_area": true,
    "score": 40400,
    "longitude": 117.67777641531359,
    "latitude": 8.676387237014605,
    "facility_name": "",
    "pvout_average_mean": 1389.6730083145083,
    "pvout_average_min": 1297.8308818552753,
    "pvout_average_max": 1442.350582311649,
    "population": 1643.3647203445435,
    "count": 101
  },
  {
    "id": "f22474cd-5f82-4aa7-939f-b0fa1a3a18be",
    "GID_2": "PHL.69.11_1",
    "municipality": "Matnog, Sorsogon",
    "suggested_area": true,
    "score": 40000,
    "longitude": 124.09471864396114,
    "latitude": 12.563333279709237,
    "facility_name": "",
    "pvout_average_mean": 1504.5549187760262,
    "pvout_average_min": 1498.8800549316406,
    "pvout_average_max": 1510.5024475097657,
    "population": 4207.971961975098,
    "count": 100
  },
  {
    "id": "0f1e90ea-05fc-476d-873b-bc07b26c652b",
    "GID_2": "PHL.6.1_1",
    "municipality": "Anini-Y, Antique",
    "suggested_area": true,
    "score": 39200,
    "longitude": 122.02944157933327,
    "latitude": 10.466943528818016,
    "facility_name": "",
    "pvout_average_mean": 1527.6465732289005,
    "pvout_average_min": 1526.3424470862565,
    "pvout_average_max": 1529.3762804926657,
    "population": 1402.8173274993896,
    "count": 98
  },
  {
    "id": "29136a92-6c73-41cc-8f61-5a28eadc8fdd",
    "GID_2": "PHL.51.12_1",
    "municipality": "Hinoba-An, Negros Occidental",
    "suggested_area": true,
    "score": 39200,
    "longitude": 122.47555253639881,
    "latitude": 9.583054276487388,
    "facility_name": "",
    "pvout_average_mean": 1375.1019668585343,
    "pvout_average_min": 1342.3194629902741,
    "pvout_average_max": 1401.6468854631696,
    "population": 2523.202554702759,
    "count": 98
  },
  {
    "id": "3495a92f-7ef6-4f85-8f1a-3a0dfb0a22b9",
    "GID_2": "PHL.46.9_1",
    "municipality": "Esperanza, Masbate",
    "suggested_area": true,
    "score": 38800,
    "longitude": 124.01471867158575,
    "latitude": 11.783332958984703,
    "facility_name": "",
    "pvout_average_mean": 1552.750661499171,
    "pvout_average_min": 1547.0788196681701,
    "pvout_average_max": 1558.55550927231,
    "population": 1836.4790420532227,
    "count": 97
  },
  {
    "id": "80dac240-5e11-45af-92af-3f1d9adea57a",
    "GID_2": "PHL.75.12_1",
    "municipality": "Lingig, Surigao del Sur",
    "suggested_area": true,
    "score": 38800,
    "longitude": 126.45694005050046,
    "latitude": 8.232498165605328,
    "facility_name": "",
    "pvout_average_mean": 1431.7274792490261,
    "pvout_average_min": 1424.599165139739,
    "pvout_average_max": 1436.0425610099871,
    "population": 3169.0979747772217,
    "count": 97
  },
  {
    "id": "6b3dde4d-6a46-4e9f-af5a-818f63636570",
    "GID_2": "PHL.29.6_1",
    "municipality": "Governor Generoso, Davao Oriental",
    "suggested_area": true,
    "score": 38800,
    "longitude": 126.08055129157944,
    "latitude": 6.672219746264925,
    "facility_name": "",
    "pvout_average_mean": 1375.4124931251472,
    "pvout_average_min": 1343.1373001570555,
    "pvout_average_max": 1413.1297305392236,
    "population": 2801.7970123291016,
    "count": 97
  },
  {
    "id": "e3fff617-59da-4ee3-b554-dd7dcb55ed08",
    "GID_2": "PHL.66.25_1",
    "municipality": "Villareal, Samar",
    "suggested_area": true,
    "score": 38400,
    "longitude": 124.91749613763166,
    "latitude": 11.59611065978014,
    "facility_name": "",
    "pvout_average_mean": 1380.6738037778805,
    "pvout_average_min": 1377.437900543213,
    "pvout_average_max": 1384.0653330485027,
    "population": 2259.2080249786377,
    "count": 96
  },
  {
    "id": "7314a1a7-e26a-45cc-9757-e844fb4657c6",
    "GID_2": "PHL.15.33_1",
    "municipality": "Maribojoc, Bohol",
    "suggested_area": true,
    "score": 38400,
    "longitude": 123.82805206937651,
    "latitude": 9.741109897033914,
    "facility_name": "",
    "pvout_average_mean": 1355.5647448835678,
    "pvout_average_min": 1352.1554196675618,
    "pvout_average_max": 1359.293020884196,
    "population": 2053.172842979431,
    "count": 96
  },
  {
    "id": "d547985d-e4e9-48f5-b181-130ec2b361c5",
    "GID_2": "PHL.38.7_1",
    "municipality": "Tanudan, Kalinga",
    "suggested_area": true,
    "score": 38000,
    "longitude": 121.34333070513738,
    "latitude": 17.365557476528494,
    "facility_name": "",
    "pvout_average_mean": 1463.1738982763598,
    "pvout_average_min": 1436.016845703125,
    "pvout_average_max": 1478.943419767681,
    "population": 1208.153720855713,
    "count": 95
  },
  {
    "id": "0b1ebbc1-7c25-4c20-9ed6-1d7cec51c4a8",
    "GID_2": "PHL.65.14_1",
    "municipality": "San Fernando, Romblon",
    "suggested_area": true,
    "score": 38000,
    "longitude": 122.42555255366419,
    "latitude": 12.44527767560998,
    "facility_name": "",
    "pvout_average_mean": 1400.7555918529795,
    "pvout_average_min": 1266.829304584704,
    "pvout_average_max": 1488.9973016036183,
    "population": 4613.564208984375,
    "count": 95
  },
  {
    "id": "d145afa2-207f-4359-b195-21fcd1c23cea",
    "GID_2": "PHL.43.39_1",
    "municipality": "Tacloban City, Leyte",
    "suggested_area": true,
    "score": 38000,
    "longitude": 124.96638500963884,
    "latitude": 11.334999441303507,
    "facility_name": "",
    "pvout_average_mean": 1370.6158645806986,
    "pvout_average_min": 1360.0908781352796,
    "pvout_average_max": 1379.845548930921,
    "population": 2407.445240497589,
    "count": 95
  },
  {
    "id": "c0690c46-44c0-4ef6-8976-12d169f8eab4",
    "GID_2": "PHL.80.18_1",
    "municipality": "Pagadian City, Zamboanga del Sur",
    "suggested_area": true,
    "score": 37600,
    "longitude": 123.42610776372446,
    "latitude": 7.804442434039134,
    "facility_name": "",
    "pvout_average_mean": 1470.9668002710641,
    "pvout_average_min": 1467.178230447972,
    "pvout_average_max": 1475.6801861702127,
    "population": 2791.2824668884277,
    "count": 94
  },
  {
    "id": "38db0538-684a-4d5c-8e52-7b656133c97d",
    "GID_2": "PHL.59.12_1",
    "municipality": "Dumaran, Palawan",
    "suggested_area": true,
    "score": 37200,
    "longitude": 119.7177757108923,
    "latitude": 10.562499123664262,
    "facility_name": "",
    "pvout_average_mean": 1414.8370000385603,
    "pvout_average_min": 1366.3059633316532,
    "pvout_average_max": 1451.0713258148521,
    "population": 1496.2712907791138,
    "count": 93
  },
  {
    "id": "35f6fed1-cffc-4317-b9e9-b20f35f491e5",
    "GID_2": "PHL.32.3_1",
    "municipality": "Nueva Valencia, Guimaras",
    "suggested_area": true,
    "score": 37200,
    "longitude": 122.4999969724024,
    "latitude": 10.509999102077225,
    "facility_name": "",
    "pvout_average_mean": 1496.3396439059602,
    "pvout_average_min": 1492.9141898206485,
    "pvout_average_max": 1499.5123724168348,
    "population": 2501.5785236358643,
    "count": 93
  },
  {
    "id": "88151c84-886c-4714-8d1e-54c7ebd52305",
    "GID_2": "PHL.22.13_1",
    "municipality": "President Roxas, Capiz",
    "suggested_area": true,
    "score": 36800,
    "longitude": 122.91694127287484,
    "latitude": 11.48055505671026,
    "facility_name": "",
    "pvout_average_mean": 1438.2942004808906,
    "pvout_average_min": 1425.5270372473676,
    "pvout_average_max": 1452.4086781377378,
    "population": 1502.688229560852,
    "count": 92
  },
  {
    "id": "ba21ebef-6c4a-4634-a7ad-6071124e3b14",
    "GID_2": "PHL.51.20_1",
    "municipality": "Murcia, Negros Occidental",
    "suggested_area": true,
    "score": 36800,
    "longitude": 123.03333012157375,
    "latitude": 10.637499154502885,
    "facility_name": "",
    "pvout_average_mean": 1372.9957717575876,
    "pvout_average_min": 1366.0312871518342,
    "pvout_average_max": 1381.7604356848676,
    "population": 1802.4281330108643,
    "count": 92
  },
  {
    "id": "0790d8c8-c23c-4aea-b6c6-fe8d4c2c9c63",
    "GID_2": "PHL.51.23_1",
    "municipality": "Sagay City, Negros Occidental",
    "suggested_area": true,
    "score": 36400,
    "longitude": 123.54221883474152,
    "latitude": 10.978888183766044,
    "facility_name": "",
    "pvout_average_mean": 1504.159417785194,
    "pvout_average_min": 1479.812241103623,
    "pvout_average_max": 1517.4815942114526,
    "population": 1503.6160154342651,
    "count": 91
  },
  {
    "id": "a1ea69e8-f5ca-42b5-9ec1-fb6ca0071c0b",
    "GID_2": "PHL.49.18_1",
    "municipality": "Manticao, Misamis Oriental",
    "suggested_area": true,
    "score": 36400,
    "longitude": 124.27749635862645,
    "latitude": 8.387498229338483,
    "facility_name": "",
    "pvout_average_mean": 1458.634420149553,
    "pvout_average_min": 1451.5040283203125,
    "pvout_average_max": 1465.748046875,
    "population": 2300.453332901001,
    "count": 91
  },
  {
    "id": "28d68a3f-9a9c-43b7-9084-0dafc3c73b69",
    "GID_2": "PHL.28.15_1",
    "municipality": "Sarangani, Davao del Sur",
    "suggested_area": true,
    "score": 36400,
    "longitude": 125.4827737202168,
    "latitude": 5.493052594743501,
    "facility_name": "",
    "pvout_average_mean": 1473.55939283945,
    "pvout_average_min": 1464.7930478944884,
    "pvout_average_max": 1480.936059302026,
    "population": 5573.203205108643,
    "count": 91
  },
  {
    "id": "3807d0fc-4f42-4eeb-84aa-60548497f11c",
    "GID_2": "PHL.20.4_1",
    "municipality": "Bato, Camarines Sur",
    "suggested_area": true,
    "score": 35600,
    "longitude": 123.25777448851791,
    "latitude": 13.275278016893594,
    "facility_name": "",
    "pvout_average_mean": 1433.2600701954927,
    "pvout_average_min": 1429.5722848270716,
    "pvout_average_max": 1440.1844029801616,
    "population": 2402.500114440918,
    "count": 89
  },
  {
    "id": "71e6a9ea-5fee-49e1-b2d7-11f1cbc2a10c",
    "GID_2": "PHL.59.7_1",
    "municipality": "Busuanga, Palawan",
    "suggested_area": true,
    "score": 35600,
    "longitude": 119.90388675773991,
    "latitude": 12.362222085903504,
    "facility_name": "",
    "pvout_average_mean": 1508.8008616008246,
    "pvout_average_min": 1496.2239578761412,
    "pvout_average_max": 1527.9024905086903,
    "population": 2562.9794788360596,
    "count": 89
  },
  {
    "id": "cf473ac6-5a35-4caa-908e-9f46b5fc53ec",
    "GID_2": "PHL.78.9_1",
    "municipality": "San Antonio, Zambales",
    "suggested_area": true,
    "score": 35200,
    "longitude": 120.14972000618512,
    "latitude": 14.958334264494978,
    "facility_name": "",
    "pvout_average_mean": 1474.5154521368129,
    "pvout_average_min": 1439.960844560103,
    "pvout_average_max": 1510.6903436834161,
    "population": 1270.8195886611938,
    "count": 88
  },
  {
    "id": "3c52e9eb-bce7-4e09-9f28-4ce7f6c31f65",
    "GID_2": "PHL.12.8_1",
    "municipality": "Calatagan, Batangas",
    "suggested_area": true,
    "score": 35200,
    "longitude": 120.6191642885289,
    "latitude": 13.888611602419763,
    "facility_name": "",
    "pvout_average_mean": 1540.3212776415278,
    "pvout_average_min": 1532.6846798983488,
    "pvout_average_max": 1552.6983032226562,
    "population": 909.772264957428,
    "count": 88
  },
  {
    "id": "32712a84-deaa-486d-9287-c89611be0262",
    "GID_2": "PHL.65.4_1",
    "municipality": "Calatrava, Romblon",
    "suggested_area": true,
    "score": 35200,
    "longitude": 122.11333043925468,
    "latitude": 12.673333324939218,
    "facility_name": "",
    "pvout_average_mean": 1409.9770743630136,
    "pvout_average_min": 1389.4443165172231,
    "pvout_average_max": 1430.3190779252486,
    "population": 3384.9176750183105,
    "count": 88
  },
  {
    "id": "0cd40455-1b64-4c2d-be1e-969c3248d9ef",
    "GID_2": "PHL.43.29_1",
    "municipality": "Merida, Leyte",
    "suggested_area": true,
    "score": 35200,
    "longitude": 124.54582959930224,
    "latitude": 10.968332623870237,
    "facility_name": "",
    "pvout_average_mean": 1398.944990678267,
    "pvout_average_min": 1395.0396062677557,
    "pvout_average_max": 1403.572626287287,
    "population": 1092.6327629089355,
    "count": 88
  },
  {
    "id": "ef4b70ac-25c4-4e12-8b5c-f32c4cc7c77d",
    "GID_2": "PHL.59.21_1",
    "municipality": "San Vicente, Palawan",
    "suggested_area": true,
    "score": 35200,
    "longitude": 119.16610923471825,
    "latitude": 10.462221304654102,
    "facility_name": "",
    "pvout_average_mean": 1360.5953888034057,
    "pvout_average_min": 1302.6555480957031,
    "pvout_average_max": 1442.0196685791016,
    "population": 1957.6235456466675,
    "count": 88
  },
  {
    "id": "d0144766-5f89-41c8-9839-6dff906d4259",
    "GID_2": "PHL.30.7_1",
    "municipality": "Tubajon, Dinagat Islands",
    "suggested_area": true,
    "score": 34800,
    "longitude": 125.55305147372712,
    "latitude": 10.348610146828188,
    "facility_name": "",
    "pvout_average_mean": 1318.6400100883395,
    "pvout_average_min": 1288.2113345792925,
    "pvout_average_max": 1339.3595812567348,
    "population": 1311.0359258651733,
    "count": 87
  },
  {
    "id": "70b797ef-e1eb-4a0d-b4f0-1b0c90a5758f",
    "GID_2": "PHL.71.12_1",
    "municipality": "Pintuyan, Southern Leyte",
    "suggested_area": true,
    "score": 34800,
    "longitude": 125.20194048385527,
    "latitude": 10.008887784916999,
    "facility_name": "",
    "pvout_average_mean": 1286.425288130904,
    "pvout_average_min": 1270.225976001257,
    "pvout_average_max": 1303.6695304081359,
    "population": 2413.1865644454956,
    "count": 87
  },
  {
    "id": "160372d9-6bbf-46ce-8e0c-db6dc40ad652",
    "GID_2": "PHL.46.15_1",
    "municipality": "Palanas, Masbate",
    "suggested_area": true,
    "score": 34400,
    "longitude": 123.90694093102447,
    "latitude": 12.181388678214823,
    "facility_name": "",
    "pvout_average_mean": 1480.0031432322012,
    "pvout_average_min": 1469.948426712391,
    "pvout_average_max": 1490.1095793968022,
    "population": 1781.1076908111572,
    "count": 86
  },
  {
    "id": "4552846e-7076-4732-8c99-7c538d6e2311",
    "GID_2": "PHL.6.8_1",
    "municipality": "Laua-An, Antique",
    "suggested_area": true,
    "score": 34400,
    "longitude": 122.04083046428948,
    "latitude": 11.129721579119275,
    "facility_name": "",
    "pvout_average_mean": 1451.5365371222088,
    "pvout_average_min": 1446.3517186364463,
    "pvout_average_max": 1455.5763464639354,
    "population": 1694.9331016540525,
    "count": 86
  },
  {
    "id": "87fe0512-b811-4776-873d-8e877e082c7d",
    "GID_2": "PHL.48.9_1",
    "municipality": "Lopez Jaena, Misamis Occidental",
    "suggested_area": true,
    "score": 34400,
    "longitude": 123.7752743098233,
    "latitude": 8.542220515179643,
    "facility_name": "",
    "pvout_average_mean": 1497.5799401706777,
    "pvout_average_min": 1489.4259160951126,
    "pvout_average_max": 1503.806480230287,
    "population": 2049.317735671997,
    "count": 86
  },
  {
    "id": "0479252f-2cdb-4684-b8ca-917db7a5be75",
    "GID_2": "PHL.80.28_1",
    "municipality": "Vincenzo A. Sagun, Zamboanga del Sur",
    "suggested_area": true,
    "score": 34400,
    "longitude": 123.22888560960457,
    "latitude": 7.538331213507168,
    "facility_name": "",
    "pvout_average_mean": 1506.8377936463562,
    "pvout_average_min": 1497.6693569449492,
    "pvout_average_max": 1514.445306822311,
    "population": 2099.315231323242,
    "count": 86
  },
  {
    "id": "93fecaa5-8b78-4189-9c34-fb06e47905e8",
    "GID_2": "PHL.69.3_1",
    "municipality": "Bulusan, Sorsogon",
    "suggested_area": true,
    "score": 34000,
    "longitude": 124.15277417946967,
    "latitude": 12.8105556035847,
    "facility_name": "",
    "pvout_average_mean": 1440.793241774285,
    "pvout_average_min": 1425.330171472886,
    "pvout_average_max": 1455.1646240234375,
    "population": 2217.810661315918,
    "count": 85
  },
  {
    "id": "a2a1365b-ae09-4146-acec-35d55a4a05eb",
    "GID_2": "PHL.36.12_1",
    "municipality": "Calinog, Iloilo",
    "suggested_area": true,
    "score": 34000,
    "longitude": 122.40805255970707,
    "latitude": 11.193332716386108,
    "facility_name": "",
    "pvout_average_mean": 1368.7981364676714,
    "pvout_average_min": 1364.5440903607537,
    "pvout_average_max": 1372.480352424173,
    "population": 2565.4647340774536,
    "count": 85
  },
  {
    "id": "695cf09b-38fa-4041-8efd-5258ba033150",
    "GID_2": "PHL.75.4_1",
    "municipality": "Cagwait, Surigao del Sur",
    "suggested_area": true,
    "score": 34000,
    "longitude": 126.32166231943305,
    "latitude": 8.909442888398328,
    "facility_name": "",
    "pvout_average_mean": 1429.6647874859589,
    "pvout_average_min": 1412.9973000919117,
    "pvout_average_max": 1438.5566032858455,
    "population": 2724.968665122986,
    "count": 85
  },
  {
    "id": "bcb7d586-6259-4249-a5b8-6620fdf69306",
    "GID_2": "PHL.62.5_1",
    "municipality": "Burdeos, Quezon",
    "suggested_area": true,
    "score": 33600,
    "longitude": 121.94471938636418,
    "latitude": 15.055000970909203,
    "facility_name": "",
    "pvout_average_mean": 1450.6578768450956,
    "pvout_average_min": 1436.132553827195,
    "pvout_average_max": 1461.047608875093,
    "population": 3617.1664962768555,
    "count": 84
  },
  {
    "id": "a7bcc995-ea7f-421f-9cee-de3e4c794834",
    "GID_2": "PHL.46.14_1",
    "municipality": "Monreal, Masbate",
    "suggested_area": true,
    "score": 33600,
    "longitude": 123.60388548011422,
    "latitude": 12.643055534711774,
    "facility_name": "",
    "pvout_average_mean": 1492.7468074269584,
    "pvout_average_min": 1484.4020487467449,
    "pvout_average_max": 1499.9557044619605,
    "population": 2844.16157913208,
    "count": 84
  },
  {
    "id": "2b13827b-d659-43ca-8416-2f001ba3837c",
    "GID_2": "PHL.62.15_1",
    "municipality": "Infanta, Quezon",
    "suggested_area": true,
    "score": 33200,
    "longitude": 121.65638615259455,
    "latitude": 14.774167522102358,
    "facility_name": "",
    "pvout_average_mean": 1395.9461115261674,
    "pvout_average_min": 1390.1066629800453,
    "pvout_average_max": 1400.9055719950113,
    "population": 2626.624198913574,
    "count": 83
  },
  {
    "id": "7abfb905-5d76-4532-861d-73ab47d6af84",
    "GID_2": "PHL.69.12_1",
    "municipality": "Pilar, Sorsogon",
    "suggested_area": true,
    "score": 33200,
    "longitude": 123.69082989453817,
    "latitude": 12.957222330558007,
    "facility_name": "",
    "pvout_average_mean": 1471.8903915886794,
    "pvout_average_min": 1465.4272431522968,
    "pvout_average_max": 1477.1764357233621,
    "population": 2399.005962371826,
    "count": 83
  },
  {
    "id": "4daa248e-44a1-49a6-8038-fd5e291c9ea5",
    "GID_2": "PHL.14.2_1",
    "municipality": "Biliran, Biliran",
    "suggested_area": true,
    "score": 33200,
    "longitude": 124.43332963814935,
    "latitude": 11.505277289097807,
    "facility_name": "",
    "pvout_average_mean": 1373.2506884051274,
    "pvout_average_min": 1328.207459231457,
    "pvout_average_max": 1438.5085110951618,
    "population": 1530.6402459144592,
    "count": 83
  },
  {
    "id": "ad02b9d4-0c71-4b9b-a8b6-bddf4e59886d",
    "GID_2": "PHL.15.11_1",
    "municipality": "Calape, Bohol",
    "suggested_area": true,
    "score": 33200,
    "longitude": 123.85694094828985,
    "latitude": 9.941943312946227,
    "facility_name": "",
    "pvout_average_mean": 1390.9970477338904,
    "pvout_average_min": 1377.806452371988,
    "pvout_average_max": 1405.3983669051204,
    "population": 814.5702090263367,
    "count": 83
  },
  {
    "id": "51f69b47-5e8c-4c7f-aeb8-4bd1562af86b",
    "GID_2": "PHL.59.8_1",
    "municipality": "Cagayancillo, Palawan",
    "suggested_area": true,
    "score": 33200,
    "longitude": 121.23471963153051,
    "latitude": 9.655832084190052,
    "facility_name": "",
    "pvout_average_mean": 1524.9060331060894,
    "pvout_average_min": 1523.2596597326808,
    "pvout_average_max": 1526.4986454607492,
    "population": 3895.1954822540283,
    "count": 83
  },
  {
    "id": "9709f0a5-c297-469c-87ba-c7ba77dd5df9",
    "GID_2": "PHL.62.27_1",
    "municipality": "Perez, Quezon",
    "suggested_area": true,
    "score": 32800,
    "longitude": 121.91916383963316,
    "latitude": 14.20833395610732,
    "facility_name": "",
    "pvout_average_mean": 1420.949829030674,
    "pvout_average_min": 1411.8339694883766,
    "pvout_average_max": 1428.1588774890433,
    "population": 2211.606768131256,
    "count": 82
  },
  {
    "id": "afd8f7a4-247c-48af-baa2-b7a13654e8c5",
    "GID_2": "PHL.62.26_1",
    "municipality": "Patnanungan, Quezon",
    "suggested_area": true,
    "score": 32400,
    "longitude": 122.21249707167834,
    "latitude": 14.839723104613155,
    "facility_name": "",
    "pvout_average_mean": 1485.9032078731752,
    "pvout_average_min": 1464.1971993152006,
    "pvout_average_max": 1499.4237301673418,
    "population": 3505.021614074707,
    "count": 81
  },
  {
    "id": "2496c9ac-2159-40bb-95d1-7d1de2159252",
    "GID_2": "PHL.61.1_1",
    "municipality": "Agno, Pangasinan",
    "suggested_area": true,
    "score": 32000,
    "longitude": 119.77194235885689,
    "latitude": 16.145279196992043,
    "facility_name": "",
    "pvout_average_mean": 1586.486356099446,
    "pvout_average_min": 1577.6974487304688,
    "pvout_average_max": 1590.115966796875,
    "population": 1028.3544540405273,
    "count": 80
  },
  {
    "id": "20e191b7-6d9c-4f68-89e5-4b0b704437d0",
    "GID_2": "PHL.78.13_1",
    "municipality": "Santa Cruz, Zambales",
    "suggested_area": true,
    "score": 32000,
    "longitude": 119.89416453887485,
    "latitude": 15.804723501406293,
    "facility_name": "",
    "pvout_average_mean": 1571.6147037760416,
    "pvout_average_min": 1568.118766784668,
    "pvout_average_max": 1577.076823425293,
    "population": 934.8846311569214,
    "count": 80
  },
  {
    "id": "c4d3c983-a7ac-4c33-b2f4-49fc6b2b3225",
    "GID_2": "PHL.62.6_1",
    "municipality": "Calauag, Quezon",
    "suggested_area": true,
    "score": 32000,
    "longitude": 122.2669414973227,
    "latitude": 14.244722859958651,
    "facility_name": "",
    "pvout_average_mean": 1408.505987576076,
    "pvout_average_min": 1403.660174560547,
    "pvout_average_max": 1413.1430526733398,
    "population": 2199.719772338867,
    "count": 80
  },
  {
    "id": "14352857-897e-4a90-8cf9-82a321c03168",
    "GID_2": "PHL.58.11_1",
    "municipality": "Pola, Oriental Mindoro",
    "suggested_area": true,
    "score": 32000,
    "longitude": 121.44110844915383,
    "latitude": 13.17250019685548,
    "facility_name": "",
    "pvout_average_mean": 1450.694044263436,
    "pvout_average_min": 1433.204133605957,
    "pvout_average_max": 1473.6376754760743,
    "population": 1620.4536247253418,
    "count": 80
  },
  {
    "id": "1f41c804-006b-4ebe-84e3-767a12206275",
    "GID_2": "PHL.62.12_1",
    "municipality": "Guinayangan, Quezon",
    "suggested_area": true,
    "score": 31600,
    "longitude": 122.46916364971605,
    "latitude": 13.875000485712013,
    "facility_name": "",
    "pvout_average_mean": 1463.5722874986925,
    "pvout_average_min": 1454.3284433099288,
    "pvout_average_max": 1470.1311436906647,
    "population": 938.0757727622986,
    "count": 79
  },
  {
    "id": "e5348585-da76-4264-a7ac-857e00acee15",
    "GID_2": "PHL.51.8_1",
    "municipality": "Enrique B. Magalona, Negros Occidental",
    "suggested_area": true,
    "score": 31600,
    "longitude": 123.00666346411529,
    "latitude": 10.915277046499211,
    "facility_name": "",
    "pvout_average_mean": 1476.740360866285,
    "pvout_average_min": 1474.5929882194423,
    "pvout_average_max": 1478.6617416188687,
    "population": 2214.972801208496,
    "count": 79
  },
  {
    "id": "8ba9ad03-cdf1-43a8-80ce-b2b9ae611353",
    "GID_2": "PHL.74.5_1",
    "municipality": "Dapa, Surigao del Norte",
    "suggested_area": true,
    "score": 31600,
    "longitude": 126.00999576038726,
    "latitude": 9.76416546206949,
    "facility_name": "",
    "pvout_average_mean": 1400.7087357521375,
    "pvout_average_min": 1397.4510698922072,
    "pvout_average_max": 1405.6344890353046,
    "population": 2820.7349586486816,
    "count": 79
  },
  {
    "id": "bdbde532-154b-4b8e-9be1-da3a34ae13e5",
    "GID_2": "PHL.25.12_1",
    "municipality": "Boljoon, Cebu",
    "suggested_area": true,
    "score": 31600,
    "longitude": 123.49055218591575,
    "latitude": 9.650276526350154,
    "facility_name": "",
    "pvout_average_mean": 1459.6826097337814,
    "pvout_average_min": 1452.6868463830103,
    "pvout_average_max": 1466.0810701394382,
    "population": 872.8018608093262,
    "count": 79
  },
  {
    "id": "0b52ddd8-1622-41a1-9fac-f7fb29143949",
    "GID_2": "PHL.20.13_1",
    "municipality": "Caramoan, Camarines Sur",
    "suggested_area": true,
    "score": 31200,
    "longitude": 123.8186076281933,
    "latitude": 13.958889409094473,
    "facility_name": "",
    "pvout_average_mean": 1473.5524192143655,
    "pvout_average_min": 1466.5210696489382,
    "pvout_average_max": 1480.4896052433894,
    "population": 4368.488540649414,
    "count": 78
  },
  {
    "id": "88815a03-577d-4561-8e64-c16a6400f90f",
    "GID_2": "PHL.15.46_1",
    "municipality": "Tubigon, Bohol",
    "suggested_area": true,
    "score": 30800,
    "longitude": 123.92832981252761,
    "latitude": 10.071387810615851,
    "facility_name": "",
    "pvout_average_mean": 1319.917079893462,
    "pvout_average_min": 1311.403612012987,
    "pvout_average_max": 1328.6559472022118,
    "population": 2281.445276260376,
    "count": 77
  },
  {
    "id": "cc22c49c-60e3-4426-8bf8-0d59e65c658d",
    "GID_2": "PHL.45.6_1",
    "municipality": "Torrijos, Marinduque",
    "suggested_area": true,
    "score": 30400,
    "longitude": 122.14694153875962,
    "latitude": 13.39916695672332,
    "facility_name": "",
    "pvout_average_mean": 1516.695807603684,
    "pvout_average_min": 1477.613918906764,
    "pvout_average_max": 1551.4667984811883,
    "population": 1438.4794063568115,
    "count": 76
  },
  {
    "id": "04f65f6b-095e-42fd-99a7-406b45a3c22f",
    "GID_2": "PHL.66.26_1",
    "municipality": "Zumarraga, Samar",
    "suggested_area": true,
    "score": 30400,
    "longitude": 124.85749615835012,
    "latitude": 11.69249958830237,
    "facility_name": "",
    "pvout_average_mean": 1419.275619676039,
    "pvout_average_min": 1414.51220703125,
    "pvout_average_max": 1425.4748406661183,
    "population": 2629.593376159668,
    "count": 76
  },
  {
    "id": "0467da78-255c-40ca-a058-b4ead2769e78",
    "GID_2": "PHL.25.49_1",
    "municipality": "Tabogon, Cebu",
    "suggested_area": true,
    "score": 30400,
    "longitude": 124.03860755222563,
    "latitude": 10.955832618730467,
    "facility_name": "",
    "pvout_average_mean": 1500.062377126592,
    "pvout_average_min": 1493.5548192074425,
    "pvout_average_max": 1504.8391820004113,
    "population": 764.9331073760986,
    "count": 76
  },